FID,id,The_geom,stop_id,nome_parad,lat,long,fonte,ano_ref,epsg_codif
vw_PontosdeOnibus.fid--780b70dd_194f2cc3853_-37b3,1,POINT (-38.590602 -3.702286),10,"AVENIDA CEL CARVALHO, 1135",-3.702286,-38.590602,ETUFOR,2022,EPSG: 31984 (SIRGAS 2000 - UTM 24S); Codificação: UTF-8
vw_PontosdeOnibus.fid--780b70dd_194f2cc3853_-37b2,2,POINT (-38.528991 -3.722157),1000,"RUA DOR JOAO MOREIRA, 489",-3.722157,-38.528991,ETUFOR,2022,EPSG: 31984 (SIRGAS 2000 - UTM 24S); Codificação: UTF-8
vw_PontosdeOnibus.fid--780b70dd_194f2cc3853_-37b1,3,POINT (-38.526007 -3.723169),1001,"RUA DOR JOAO MOREIRA, 163",-3.723169,-38.526007,ETUFOR,2022,EPSG: 31984 (SIRGAS 2000 - UTM 24S); Codificação: UTF-8
vw_PontosdeOnibus.fid--780b70dd_194f2cc3853_-37b0,4,POINT (-38.532847 -3.725926),1009,"AVENIDA TRISTÃO GONÇALVES, 500",-3.725926,-38.532847,ETUFOR,2022,EPSG: 31984 (SIRGAS 2000 - UTM 24S); Codificação: UTF-8
vw_PontosdeOnibus.fid--780b70dd_194f2cc3853_-37af,5,POINT (-38.534206 -3.726137),1010,"AVENIDA IMPERADOR, 550",-3.726137,-38.534206,ETUFOR,2022,EPSG: 31984 (SIRGAS 2000 - UTM 24S); Codificação: UTF-8
vw_PontosdeOnibus.fid--780b70dd_194f2cc3853_-37ae,6,POINT (-38.533477 -3.72369),1013,"AVENIDA IMPERADOR, 262",-3.72369,-38.533477,ETUFOR,2022,EPSG: 31984 (SIRGAS 2000 - UTM 24S); Codificação: UTF-8
vw_PontosdeOnibus.fid--780b70dd_194f2cc3853_-37ad,7,POINT (-38.534034 -3.723879),1014,"RUA SAO PAULO, 955",-3.723879,-38.534034,ETUFOR,2022,EPSG: 31984 (SIRGAS 2000 - UTM 24S); Codificação: UTF-8
vw_PontosdeOnibus.fid--780b70dd_194f2cc3853_-37ac,8,POINT (-38.535467 -3.724543),1015,"RUA GUILHERME ROCHA, 1048",-3.724543,-38.535467,ETUFOR,2022,EPSG: 31984 (SIRGAS 2000 - UTM 24S); Codificação: UTF-8
vw_PontosdeOnibus.fid--780b70dd_194f2cc3853_-37ab,9,POINT (-38.530776 -3.72682),1016,"RUA GAL SAMPAIO, 951",-3.72682,-38.530776,ETUFOR,2022,EPSG: 31984 (SIRGAS 2000 - UTM 24S); Codificação: UTF-8
vw_PontosdeOnibus.fid--780b70dd_194f2cc3853_-37aa,10,POINT (-38.600778 -3.71436),102,"RUA BETA, 202",-3.71436,-38.600778,ETUFOR,2022,EPSG: 31984 (SIRGAS 2000 - UTM 24S); Codificação: UTF-8
vw_PontosdeOnibus.fid--780b70dd_194f2cc3853_-37a9,11,POINT (-38.529181 -3.723266),1025,"RUA CASTRO E SILVA, 409",-3.723266,-38.529181,ETUFOR,2022,EPSG: 31984 (SIRGAS 2000 - UTM 24S); Codificação: UTF-8
vw_PontosdeOnibus.fid--780b70dd_194f2cc3853_-37a8,12,POINT (-38.532204 -3.723792),1029,"AVENIDA TRISTAO GONCALVES, 211",-3.723792,-38.532204,ETUFOR,2022,EPSG: 31984 (SIRGAS 2000 - UTM 24S); Codificação: UTF-8
vw_PontosdeOnibus.fid--780b70dd_194f2cc3853_-37a7,13,POINT (-38.597229 -3.709547),103,"RUA DOR QUIXADA FELICIO, 441",-3.709547,-38.597229,ETUFOR,2022,EPSG: 31984 (SIRGAS 2000 - UTM 24S); Codificação: UTF-8
vw_PontosdeOnibus.fid--780b70dd_194f2cc3853_-37a6,14,POINT (-38.527042 -3.723972),1030,"RUA CASTRO E SILVA, 181",-3.723972,-38.527042,ETUFOR,2022,EPSG: 31984 (SIRGAS 2000 - UTM 24S); Codificação: UTF-8
vw_PontosdeOnibus.fid--780b70dd_194f2cc3853_-37a5,15,POINT (-38.525696 -3.724408),1032,"RUA CASTRO E SILVA, 38",-3.724408,-38.525696,ETUFOR,2022,EPSG: 31984 (SIRGAS 2000 - UTM 24S); Codificação: UTF-8
vw_PontosdeOnibus.fid--780b70dd_194f2cc3853_-37a4,17,POINT (-38.622155 -3.781905),1038,"RUA MIRTES CORDEIRO, 3720",-3.781905,-38.622155,ETUFOR,2022,EPSG: 31984 (SIRGAS 2000 - UTM 24S); Codificação: UTF-8
vw_PontosdeOnibus.fid--780b70dd_194f2cc3853_-37a3,18,POINT (-38.620167 -3.77688),1043,"AVENIDA H CJ CEARA, 3437",-3.77688,-38.620167,ETUFOR,2022,EPSG: 31984 (SIRGAS 2000 - UTM 24S); Codificação: UTF-8
vw_PontosdeOnibus.fid--780b70dd_194f2cc3853_-37a2,19,POINT (-38.620458 -3.776907),1044,"AVENIDA H CJ CEARA, 3439",-3.776907,-38.620458,ETUFOR,2022,EPSG: 31984 (SIRGAS 2000 - UTM 24S); Codificação: UTF-8
vw_PontosdeOnibus.fid--780b70dd_194f2cc3853_-37a1,20,POINT (-38.621114 -3.776393),1045,"AVENIDA J CJ CEARA, 291",-3.776393,-38.621114,ETUFOR,2022,EPSG: 31984 (SIRGAS 2000 - UTM 24S); Codificação: UTF-8
vw_PontosdeOnibus.fid--780b70dd_194f2cc3853_-37a0,21,POINT (-38.621323 -3.776785),1046,"AVENIDA J CJ CEARA, 1015",-3.776785,-38.621323,ETUFOR,2022,EPSG: 31984 (SIRGAS 2000 - UTM 24S); Codificação: UTF-8
vw_PontosdeOnibus.fid--780b70dd_194f2cc3853_-379f,22,POINT (-38.62069 -3.775592),1047,"AVENIDA J CJ CEARA, 1015",-3.775592,-38.62069,ETUFOR,2022,EPSG: 31984 (SIRGAS 2000 - UTM 24S); Codificação: UTF-8
vw_PontosdeOnibus.fid--780b70dd_194f2cc3853_-379e,23,POINT (-38.619656 -3.773589),1048,"AVENIDA J CJ CEARA, 2898",-3.773589,-38.619656,ETUFOR,2022,EPSG: 31984 (SIRGAS 2000 - UTM 24S); Codificação: UTF-8
vw_PontosdeOnibus.fid--780b70dd_194f2cc3853_-379d,24,POINT (-38.6181 -3.776681),1049,"AVENIDA H CJ CEARA, 2285",-3.776681,-38.6181,ETUFOR,2022,EPSG: 31984 (SIRGAS 2000 - UTM 24S); Codificação: UTF-8
vw_PontosdeOnibus.fid--780b70dd_194f2cc3853_-379c,25,POINT (-38.618163 -3.776688),1050,"AVENIDA H CJ CEARA, 2280 B",-3.776688,-38.618163,ETUFOR,2022,EPSG: 31984 (SIRGAS 2000 - UTM 24S); Codificação: UTF-8
vw_PontosdeOnibus.fid--780b70dd_194f2cc3853_-379b,26,POINT (-38.616184 -3.776489),1052,"AVENIDA H CJ CEARA, 1991 A",-3.776489,-38.616184,ETUFOR,2022,EPSG: 31984 (SIRGAS 2000 - UTM 24S); Codificação: UTF-8
vw_PontosdeOnibus.fid--780b70dd_194f2cc3853_-379a,27,POINT (-38.616026 -3.776471),1053,"AVENIDA H CJ CEARA, 1992",-3.776471,-38.616026,ETUFOR,2022,EPSG: 31984 (SIRGAS 2000 - UTM 24S); Codificação: UTF-8
vw_PontosdeOnibus.fid--780b70dd_194f2cc3853_-3799,28,POINT (-38.616402 -3.776336),1054,"AVENIDA C CJ CEARA, 2104",-3.776336,-38.616402,ETUFOR,2022,EPSG: 31984 (SIRGAS 2000 - UTM 24S); Codificação: UTF-8
vw_PontosdeOnibus.fid--780b70dd_194f2cc3853_-3798,29,POINT (-38.615799 -3.774291),1055,"AVENIDA C CJ CEARA, 1799",-3.774291,-38.615799,ETUFOR,2022,EPSG: 31984 (SIRGAS 2000 - UTM 24S); Codificação: UTF-8
vw_PontosdeOnibus.fid--780b70dd_194f2cc3853_-3797,30,POINT (-38.615762 -3.774166),1056,"AVENIDA C CJ CEARA, 1799",-3.774166,-38.615762,ETUFOR,2022,EPSG: 31984 (SIRGAS 2000 - UTM 24S); Codificação: UTF-8
vw_PontosdeOnibus.fid--780b70dd_194f2cc3853_-3796,31,POINT (-38.614678 -3.776331),1057,"AVENIDA H CJ CEARA, 1802",-3.776331,-38.614678,ETUFOR,2022,EPSG: 31984 (SIRGAS 2000 - UTM 24S); Codificação: UTF-8
vw_PontosdeOnibus.fid--780b70dd_194f2cc3853_-3795,32,POINT (-38.614124 -3.776277),1058,"AVENIDA SOUSA CARVALHO, 3619",-3.776277,-38.614124,ETUFOR,2022,EPSG: 31984 (SIRGAS 2000 - UTM 24S); Codificação: UTF-8
vw_PontosdeOnibus.fid--780b70dd_194f2cc3853_-3794,33,POINT (-38.599268 -3.711873),106,"RUA BENU MARCONDES, 600",-3.711873,-38.599268,ETUFOR,2022,EPSG: 31984 (SIRGAS 2000 - UTM 24S); Codificação: UTF-8
vw_PontosdeOnibus.fid--780b70dd_194f2cc3853_-3793,34,POINT (-38.612759 -3.776121),1060,"AVENIDA H CJ CEARA, 1610",-3.776121,-38.612759,ETUFOR,2022,EPSG: 31984 (SIRGAS 2000 - UTM 24S); Codificação: UTF-8
vw_PontosdeOnibus.fid--780b70dd_194f2cc3853_-3792,35,POINT (-38.611454 -3.775972),1061,"AVENIDA H CJ CEARA, 1476 A",-3.775972,-38.611454,ETUFOR,2022,EPSG: 31984 (SIRGAS 2000 - UTM 24S); Codificação: UTF-8
vw_PontosdeOnibus.fid--780b70dd_194f2cc3853_-3791,36,POINT (-38.611989 -3.77774),1063,"RUA BARRA VERMELHA, 2362 A",-3.77774,-38.611989,ETUFOR,2022,EPSG: 31984 (SIRGAS 2000 - UTM 24S); Codificação: UTF-8
vw_PontosdeOnibus.fid--780b70dd_194f2cc3853_-3790,37,POINT (-38.528994 -3.845492),1069,"RUA IRACEMA, 930",-3.845492,-38.528994,ETUFOR,2022,EPSG: 31984 (SIRGAS 2000 - UTM 24S); Codificação: UTF-8
vw_PontosdeOnibus.fid--780b70dd_194f2cc3853_-378f,38,POINT (-38.597806 -3.712199),107,"RUA BENU MARCONDES, 421",-3.712199,-38.597806,ETUFOR,2022,EPSG: 31984 (SIRGAS 2000 - UTM 24S); Codificação: UTF-8
vw_PontosdeOnibus.fid--780b70dd_194f2cc3853_-378e,39,POINT (-38.528904 -3.845384),1070,"RUA ANGELA DINIZ, 930",-3.845384,-38.528904,ETUFOR,2022,EPSG: 31984 (SIRGAS 2000 - UTM 24S); Codificação: UTF-8
vw_PontosdeOnibus.fid--780b70dd_194f2cc3853_-378d,40,POINT (-38.526421 -3.848576),1071,"RUA SILVINHA TELES D-69, 520",-3.848576,-38.526421,ETUFOR,2022,EPSG: 31984 (SIRGAS 2000 - UTM 24S); Codificação: UTF-8
vw_PontosdeOnibus.fid--780b70dd_194f2cc3853_-378c,41,POINT (-38.472513 -3.788761),1077,"AVENIDA EDILSON B SOARES, 1471",-3.788761,-38.472513,ETUFOR,2022,EPSG: 31984 (SIRGAS 2000 - UTM 24S); Codificação: UTF-8
vw_PontosdeOnibus.fid--780b70dd_194f2cc3853_-378b,42,POINT (-38.48055 -3.789997),1079,"AVENIDA WASHINGTON SOARES, 3840",-3.789997,-38.48055,ETUFOR,2022,EPSG: 31984 (SIRGAS 2000 - UTM 24S); Codificação: UTF-8
vw_PontosdeOnibus.fid--780b70dd_194f2cc3853_-378a,43,POINT (-38.480602 -3.787602),1080,"AVENIDA WASHINGTON SOARES, 3340",-3.787602,-38.480602,ETUFOR,2022,EPSG: 31984 (SIRGAS 2000 - UTM 24S); Codificação: UTF-8
vw_PontosdeOnibus.fid--780b70dd_194f2cc3853_-3789,44,POINT (-38.480994 -3.785908),1082,"AVENIDA WASHINGTON SOARES, SN",-3.785908,-38.480994,ETUFOR,2022,EPSG: 31984 (SIRGAS 2000 - UTM 24S); Codificação: UTF-8
vw_PontosdeOnibus.fid--780b70dd_194f2cc3853_-3788,45,POINT (-38.481153 -3.7826),1083,"AVENIDA WASHINGTON SOARES, SN",-3.7826,-38.481153,ETUFOR,2022,EPSG: 31984 (SIRGAS 2000 - UTM 24S); Codificação: UTF-8
vw_PontosdeOnibus.fid--780b70dd_194f2cc3853_-3787,46,POINT (-38.481016 -3.782528),1084,"AVENIDA WASHINGTON SOARES, SN",-3.782528,-38.481016,ETUFOR,2022,EPSG: 31984 (SIRGAS 2000 - UTM 24S); Codificação: UTF-8
vw_PontosdeOnibus.fid--780b70dd_194f2cc3853_-3786,47,POINT (-38.616675 -3.798755),1085,"RUA ESTRADA DA URUCUTUBA, 2181",-3.798755,-38.616675,ETUFOR,2022,EPSG: 31984 (SIRGAS 2000 - UTM 24S); Codificação: UTF-8
vw_PontosdeOnibus.fid--780b70dd_194f2cc3853_-3785,48,POINT (-38.616669 -3.79883),1086,"RUA ESTRADA DA URUCUTUBA, 2191",-3.79883,-38.616669,ETUFOR,2022,EPSG: 31984 (SIRGAS 2000 - UTM 24S); Codificação: UTF-8
vw_PontosdeOnibus.fid--780b70dd_194f2cc3853_-3784,49,POINT (-38.617369 -3.798528),1087,"RUA NS 02 RES BOM JARDIM, 163",-3.798528,-38.617369,ETUFOR,2022,EPSG: 31984 (SIRGAS 2000 - UTM 24S); Codificação: UTF-8
vw_PontosdeOnibus.fid--780b70dd_194f2cc3853_-3783,50,POINT (-38.614211 -3.798536),1089,"ESTRADA DA URUCUTUBA, 1956",-3.798536,-38.614211,ETUFOR,2022,EPSG: 31984 (SIRGAS 2000 - UTM 24S); Codificação: UTF-8
vw_PontosdeOnibus.fid--780b70dd_194f2cc3853_-3782,51,POINT (-38.614158 -3.798441),1090,"ESTRADA DA URUCUTUBA, 1966",-3.798441,-38.614158,ETUFOR,2022,EPSG: 31984 (SIRGAS 2000 - UTM 24S); Codificação: UTF-8
vw_PontosdeOnibus.fid--780b70dd_194f2cc3853_-3781,52,POINT (-38.612021 -3.798107),1091,"ESTRADA DA URUCUTUBA, 1758",-3.798107,-38.612021,ETUFOR,2022,EPSG: 31984 (SIRGAS 2000 - UTM 24S); Codificação: UTF-8
vw_PontosdeOnibus.fid--780b70dd_194f2cc3853_-3780,53,POINT (-38.612187 -3.798204),1092,"ESTRADA DA URUCUTUBA, 1795",-3.798204,-38.612187,ETUFOR,2022,EPSG: 31984 (SIRGAS 2000 - UTM 24S); Codificação: UTF-8
vw_PontosdeOnibus.fid--780b70dd_194f2cc3853_-377f,54,POINT (-38.611507 -3.79565),1093,"RUA BARRA MANSA, 342",-3.79565,-38.611507,ETUFOR,2022,EPSG: 31984 (SIRGAS 2000 - UTM 24S); Codificação: UTF-8
vw_PontosdeOnibus.fid--780b70dd_194f2cc3853_-377e,55,POINT (-38.614231 -3.794767),1094,"RUA BARRA MANSA, 638",-3.794767,-38.614231,ETUFOR,2022,EPSG: 31984 (SIRGAS 2000 - UTM 24S); Codificação: UTF-8
vw_PontosdeOnibus.fid--780b70dd_194f2cc3853_-377d,56,POINT (-38.614406 -3.791265),1095,"RUA FRANCISCO PAIVA, 1032",-3.791265,-38.614406,ETUFOR,2022,EPSG: 31984 (SIRGAS 2000 - UTM 24S); Codificação: UTF-8
vw_PontosdeOnibus.fid--780b70dd_194f2cc3853_-377c,57,POINT (-38.614329 -3.791007),1096,"RUA FRANCISCO PAIVA, 1034",-3.791007,-38.614329,ETUFOR,2022,EPSG: 31984 (SIRGAS 2000 - UTM 24S); Codificação: UTF-8
vw_PontosdeOnibus.fid--780b70dd_194f2cc3853_-377b,58,POINT (-38.615116 -3.793495),1097,"RUA FRANCISCO PAIVA, 1326",-3.793495,-38.615116,ETUFOR,2022,EPSG: 31984 (SIRGAS 2000 - UTM 24S); Codificação: UTF-8
vw_PontosdeOnibus.fid--780b70dd_194f2cc3853_-377a,59,POINT (-38.615538 -3.794798),1098,"RUA FRANCISCO PAIVA, 1430",-3.794798,-38.615538,ETUFOR,2022,EPSG: 31984 (SIRGAS 2000 - UTM 24S); Codificação: UTF-8
vw_PontosdeOnibus.fid--780b70dd_194f2cc3853_-3779,60,POINT (-38.619215 -3.799186),1099,"ESTRADA DA URUCUTUBA, SN",-3.799186,-38.619215,ETUFOR,2022,EPSG: 31984 (SIRGAS 2000 - UTM 24S); Codificação: UTF-8
vw_PontosdeOnibus.fid--780b70dd_194f2cc3853_-3778,61,POINT (-38.591645 -3.703397),11,"AVENIDA CEL CARVALHO, 116",-3.703397,-38.591645,ETUFOR,2022,EPSG: 31984 (SIRGAS 2000 - UTM 24S); Codificação: UTF-8
vw_PontosdeOnibus.fid--780b70dd_194f2cc3853_-3777,62,POINT (-38.480304 -3.791062),1100,"AVENIDA WASHINGTON SOARES, SN",-3.791062,-38.480304,ETUFOR,2022,EPSG: 31984 (SIRGAS 2000 - UTM 24S); Codificação: UTF-8
vw_PontosdeOnibus.fid--780b70dd_194f2cc3853_-3776,63,POINT (-38.479932 -3.794761),1101,"AVENIDA WASHINGTON SOARES, S/N",-3.794761,-38.479932,ETUFOR,2022,EPSG: 31984 (SIRGAS 2000 - UTM 24S); Codificação: UTF-8
vw_PontosdeOnibus.fid--780b70dd_194f2cc3853_-3775,64,POINT (-38.475911 -3.793306),1104,"AVENIDA ENG LEAL LIMA VERDE, 565",-3.793306,-38.475911,ETUFOR,2022,EPSG: 31984 (SIRGAS 2000 - UTM 24S); Codificação: UTF-8
vw_PontosdeOnibus.fid--780b70dd_194f2cc3853_-3774,65,POINT (-38.47757 -3.79549),1105,"AVENIDA GOMES DE FREITAS, 2985",-3.79549,-38.47757,ETUFOR,2022,EPSG: 31984 (SIRGAS 2000 - UTM 24S); Codificação: UTF-8
vw_PontosdeOnibus.fid--780b70dd_194f2cc3853_-3773,66,POINT (-38.47389 -3.791412),1106,"RUA CEL OLEGARIO MEMORIA, 1602",-3.791412,-38.47389,ETUFOR,2022,EPSG: 31984 (SIRGAS 2000 - UTM 24S); Codificação: UTF-8
vw_PontosdeOnibus.fid--780b70dd_194f2cc3853_-3772,67,POINT (-38.470984 -3.791479),1107,"AVENIDA SAPIRANGA, 465",-3.791479,-38.470984,ETUFOR,2022,EPSG: 31984 (SIRGAS 2000 - UTM 24S); Codificação: UTF-8
vw_PontosdeOnibus.fid--780b70dd_194f2cc3853_-3771,68,POINT (-38.471963 -3.797549),1108,"RUA EUCLIDES O DE SOUSA, 935",-3.797549,-38.471963,ETUFOR,2022,EPSG: 31984 (SIRGAS 2000 - UTM 24S); Codificação: UTF-8
vw_PontosdeOnibus.fid--780b70dd_194f2cc3853_-3770,69,POINT (-38.473567 -3.79769),1109,"RUA EUCLIDES O DE SOUSA, 880",-3.79769,-38.473567,ETUFOR,2022,EPSG: 31984 (SIRGAS 2000 - UTM 24S); Codificação: UTF-8
vw_PontosdeOnibus.fid--780b70dd_194f2cc3853_-376f,70,POINT (-38.475842 -3.797898),1110,"RUA EUCLIDES O DE SOUSA, 451",-3.797898,-38.475842,ETUFOR,2022,EPSG: 31984 (SIRGAS 2000 - UTM 24S); Codificação: UTF-8
vw_PontosdeOnibus.fid--780b70dd_194f2cc3853_-376e,71,POINT (-38.478236 -3.798098),1111,"RUA EUCLIDES O DE SOUSA, 301",-3.798098,-38.478236,ETUFOR,2022,EPSG: 31984 (SIRGAS 2000 - UTM 24S); Codificação: UTF-8
vw_PontosdeOnibus.fid--780b70dd_194f2cc3853_-376d,72,POINT (-38.479559 -3.799236),1112,"AVENIDA WASHINGTON SOARES, 4600",-3.799236,-38.479559,ETUFOR,2022,EPSG: 31984 (SIRGAS 2000 - UTM 24S); Codificação: UTF-8
vw_PontosdeOnibus.fid--780b70dd_194f2cc3853_-376c,73,POINT (-38.479977 -3.796708),1113,"AVENIDA WASHINGTON SOARES, 4393",-3.796708,-38.479977,ETUFOR,2022,EPSG: 31984 (SIRGAS 2000 - UTM 24S); Codificação: UTF-8
vw_PontosdeOnibus.fid--780b70dd_194f2cc3853_-376b,74,POINT (-38.479096 -3.795625),1114,"AVENIDA OLIVEIRA PAIVA, 2885",-3.795625,-38.479096,ETUFOR,2022,EPSG: 31984 (SIRGAS 2000 - UTM 24S); Codificação: UTF-8
vw_PontosdeOnibus.fid--780b70dd_194f2cc3853_-376a,75,POINT (-38.551509 -3.827689),1116,"AVENIDA I CJ JOSE WALTER, 360",-3.827689,-38.551509,ETUFOR,2022,EPSG: 31984 (SIRGAS 2000 - UTM 24S); Codificação: UTF-8
vw_PontosdeOnibus.fid--780b70dd_194f2cc3853_-3769,76,POINT (-38.552238 -3.830076),1117,"AVENIDA I CJ JOSE WALTER, 890",-3.830076,-38.552238,ETUFOR,2022,EPSG: 31984 (SIRGAS 2000 - UTM 24S); Codificação: UTF-8
vw_PontosdeOnibus.fid--780b70dd_194f2cc3853_-3768,77,POINT (-38.552231 -3.830053),1118,"AVENIDA I CJ JOSE WALTER, 670",-3.830053,-38.552231,ETUFOR,2022,EPSG: 31984 (SIRGAS 2000 - UTM 24S); Codificação: UTF-8
vw_PontosdeOnibus.fid--780b70dd_194f2cc3853_-3767,78,POINT (-38.556639 -3.828096),1119,"AVENIDA L CJ JOSE WALTER, 390",-3.828096,-38.556639,ETUFOR,2022,EPSG: 31984 (SIRGAS 2000 - UTM 24S); Codificação: UTF-8
vw_PontosdeOnibus.fid--780b70dd_194f2cc3853_-3766,79,POINT (-38.554696 -3.830487),1120,"RUA 69 CJ JOSE WALTER, S/N",-3.830487,-38.554696,ETUFOR,2022,EPSG: 31984 (SIRGAS 2000 - UTM 24S); Codificação: UTF-8
vw_PontosdeOnibus.fid--780b70dd_194f2cc3853_-3765,80,POINT (-38.555933 -3.831916),1121,"AVENIDA J CJ JOSE WALTER, 780",-3.831916,-38.555933,ETUFOR,2022,EPSG: 31984 (SIRGAS 2000 - UTM 24S); Codificação: UTF-8
vw_PontosdeOnibus.fid--780b70dd_194f2cc3853_-3764,81,POINT (-38.556505 -3.833825),1124,"AVENIDA J CJ JOSE WALTER, 291",-3.833825,-38.556505,ETUFOR,2022,EPSG: 31984 (SIRGAS 2000 - UTM 24S); Codificação: UTF-8
vw_PontosdeOnibus.fid--780b70dd_194f2cc3853_-3763,82,POINT (-38.556779 -3.834694),1125,"AVENIDA J CJ JOSE WALTER, SN",-3.834694,-38.556779,ETUFOR,2022,EPSG: 31984 (SIRGAS 2000 - UTM 24S); Codificação: UTF-8
vw_PontosdeOnibus.fid--780b70dd_194f2cc3853_-3762,83,POINT (-38.492044 -3.830969),1127,"RUA PERGENTINO MAIA, 380",-3.830969,-38.492044,ETUFOR,2022,EPSG: 31984 (SIRGAS 2000 - UTM 24S); Codificação: UTF-8
vw_PontosdeOnibus.fid--780b70dd_194f2cc3853_-3761,84,POINT (-38.489536 -3.831314),1128,"RUA PERGENTINO MAIA, 613",-3.831314,-38.489536,ETUFOR,2022,EPSG: 31984 (SIRGAS 2000 - UTM 24S); Codificação: UTF-8
vw_PontosdeOnibus.fid--780b70dd_194f2cc3853_-3760,85,POINT (-38.487595 -3.831276),1129,"AVENIDA CEL DIONISIO ALENCAR, 350",-3.831276,-38.487595,ETUFOR,2022,EPSG: 31984 (SIRGAS 2000 - UTM 24S); Codificação: UTF-8
vw_PontosdeOnibus.fid--780b70dd_194f2cc3853_-375f,86,POINT (-38.486846 -3.829334),1130,"AVENIDA CEL DIONISIO ALENCAR, 144",-3.829334,-38.486846,ETUFOR,2022,EPSG: 31984 (SIRGAS 2000 - UTM 24S); Codificação: UTF-8
vw_PontosdeOnibus.fid--780b70dd_194f2cc3853_-375e,87,POINT (-38.484261 -3.8283),1132,"RUA DOR JOAQUIM BENTO, 820",-3.8283,-38.484261,ETUFOR,2022,EPSG: 31984 (SIRGAS 2000 - UTM 24S); Codificação: UTF-8
vw_PontosdeOnibus.fid--780b70dd_194f2cc3853_-375d,88,POINT (-38.484995 -3.828294),1133,"RUA DOR JOAQUIM BENTO, 510",-3.828294,-38.484995,ETUFOR,2022,EPSG: 31984 (SIRGAS 2000 - UTM 24S); Codificação: UTF-8
vw_PontosdeOnibus.fid--780b70dd_194f2cc3853_-375c,89,POINT (-38.482999 -3.827725),1135,"RUA GUILHERME PESSOA, 1361",-3.827725,-38.482999,ETUFOR,2022,EPSG: 31984 (SIRGAS 2000 - UTM 24S); Codificação: UTF-8
vw_PontosdeOnibus.fid--780b70dd_194f2cc3853_-375b,90,POINT (-38.482155 -3.828385),1136,"AVENIDA WASHINGTON SOARES, 8776",-3.828385,-38.482155,ETUFOR,2022,EPSG: 31984 (SIRGAS 2000 - UTM 24S); Codificação: UTF-8
vw_PontosdeOnibus.fid--780b70dd_194f2cc3853_-375a,91,POINT (-38.595365 -3.710083),114,"RUA DOR QUIXADA FELICIO, 241",-3.710083,-38.595365,ETUFOR,2022,EPSG: 31984 (SIRGAS 2000 - UTM 24S); Codificação: UTF-8
vw_PontosdeOnibus.fid--780b70dd_194f2cc3853_-3759,92,POINT (-38.4842 -3.833601),1140,"RUA MANUEL C BRANCO, 1195",-3.833601,-38.4842,ETUFOR,2022,EPSG: 31984 (SIRGAS 2000 - UTM 24S); Codificação: UTF-8
vw_PontosdeOnibus.fid--780b70dd_194f2cc3853_-3758,93,POINT (-38.485887 -3.833366),1144,"RUA MANUEL C BRANCO, 1011",-3.833366,-38.485887,ETUFOR,2022,EPSG: 31984 (SIRGAS 2000 - UTM 24S); Codificação: UTF-8
vw_PontosdeOnibus.fid--780b70dd_194f2cc3853_-3757,94,POINT (-38.488042 -3.834711),1145,"AVENIDA GURGEL DO AMARAL, 983",-3.834711,-38.488042,ETUFOR,2022,EPSG: 31984 (SIRGAS 2000 - UTM 24S); Codificação: UTF-8
vw_PontosdeOnibus.fid--780b70dd_194f2cc3853_-3756,95,POINT (-38.48512 -3.836204),1146,"AVENIDA GURGEL DO AMARAL, 1240",-3.836204,-38.48512,ETUFOR,2022,EPSG: 31984 (SIRGAS 2000 - UTM 24S); Codificação: UTF-8
vw_PontosdeOnibus.fid--780b70dd_194f2cc3853_-3755,96,POINT (-38.490746 -3.833394),1147,"AVENIDA GURGEL DO AMARAL, 549",-3.833394,-38.490746,ETUFOR,2022,EPSG: 31984 (SIRGAS 2000 - UTM 24S); Codificação: UTF-8
vw_PontosdeOnibus.fid--780b70dd_194f2cc3853_-3754,97,POINT (-38.492441 -3.832955),1150,"AVENIDA TEN GURGEL DO AMARAL, 270",-3.832955,-38.492441,ETUFOR,2022,EPSG: 31984 (SIRGAS 2000 - UTM 24S); Codificação: UTF-8
vw_PontosdeOnibus.fid--780b70dd_194f2cc3853_-3753,98,POINT (-38.480681 -3.829153),1151,"RUA JOSE BELCHIOR, 535",-3.829153,-38.480681,ETUFOR,2022,EPSG: 31984 (SIRGAS 2000 - UTM 24S); Codificação: UTF-8
vw_PontosdeOnibus.fid--780b70dd_194f2cc3853_-3752,99,POINT (-38.479341 -3.828334),1152,"RUA JOSE PEREIRA BARROS, 80",-3.828334,-38.479341,ETUFOR,2022,EPSG: 31984 (SIRGAS 2000 - UTM 24S); Codificação: UTF-8
vw_PontosdeOnibus.fid--780b70dd_194f2cc3853_-3751,100,POINT (-38.474971 -3.829215),1153,"RUA CEL JUSTINO F RAMOS, 351",-3.829215,-38.474971,ETUFOR,2022,EPSG: 31984 (SIRGAS 2000 - UTM 24S); Codificação: UTF-8
vw_PontosdeOnibus.fid--780b70dd_194f2cc3853_-3750,101,POINT (-38.475416 -3.831622),1155,"RUA CEL JUSTINO F RAMOS, 630",-3.831622,-38.475416,ETUFOR,2022,EPSG: 31984 (SIRGAS 2000 - UTM 24S); Codificação: UTF-8
vw_PontosdeOnibus.fid--780b70dd_194f2cc3853_-374f,102,POINT (-38.477945 -3.834676),1158,"RUA SOCORRO GOMES, 413",-3.834676,-38.477945,ETUFOR,2022,EPSG: 31984 (SIRGAS 2000 - UTM 24S); Codificação: UTF-8
vw_PontosdeOnibus.fid--780b70dd_194f2cc3853_-374e,103,POINT (-38.477973 -3.83552),1159,"RUA B CJ RESD GUAJERU, 23",-3.83552,-38.477973,ETUFOR,2022,EPSG: 31984 (SIRGAS 2000 - UTM 24S); Codificação: UTF-8
vw_PontosdeOnibus.fid--780b70dd_194f2cc3853_-374d,104,POINT (-38.596508 -3.709968),116,"AVENIDA J CJ POLAR, 10",-3.709968,-38.596508,ETUFOR,2022,EPSG: 31984 (SIRGAS 2000 - UTM 24S); Codificação: UTF-8
vw_PontosdeOnibus.fid--780b70dd_194f2cc3853_-374c,105,POINT (-38.476372 -3.833297),1164,"RUA B CJ RESD GUAJERU, 101",-3.833297,-38.476372,ETUFOR,2022,EPSG: 31984 (SIRGAS 2000 - UTM 24S); Codificação: UTF-8
vw_PontosdeOnibus.fid--780b70dd_194f2cc3853_-374b,106,POINT (-38.561387 -3.836641),1165,"RUA JOAO ARAUJO LIMA, 1631",-3.836641,-38.561387,ETUFOR,2022,EPSG: 31984 (SIRGAS 2000 - UTM 24S); Codificação: UTF-8
vw_PontosdeOnibus.fid--780b70dd_194f2cc3853_-374a,107,POINT (-38.561634 -3.837375),1167,"RUA JOAO ARAUJO LIMA, 1771",-3.837375,-38.561634,ETUFOR,2022,EPSG: 31984 (SIRGAS 2000 - UTM 24S); Codificação: UTF-8
vw_PontosdeOnibus.fid--780b70dd_194f2cc3853_-3749,108,POINT (-38.561843 -3.838819),1168,"RUA JOAO ARAUJO LIMA, 1911",-3.838819,-38.561843,ETUFOR,2022,EPSG: 31984 (SIRGAS 2000 - UTM 24S); Codificação: UTF-8
vw_PontosdeOnibus.fid--780b70dd_194f2cc3853_-3748,109,POINT (-38.559093 -3.836309),1169,"AVENIDA L CJ JOSE WALTER, 1300",-3.836309,-38.559093,ETUFOR,2022,EPSG: 31984 (SIRGAS 2000 - UTM 24S); Codificação: UTF-8
vw_PontosdeOnibus.fid--780b70dd_194f2cc3853_-3747,110,POINT (-38.594275 -3.713349),117,"AVENIDA MOZART P.LUCENA, 1211",-3.713349,-38.594275,ETUFOR,2022,EPSG: 31984 (SIRGAS 2000 - UTM 24S); Codificação: UTF-8
vw_PontosdeOnibus.fid--780b70dd_194f2cc3853_-3746,111,POINT (-38.559445 -3.837494),1170,"AVENIDA L CJ JOSE WALTER, S/N",-3.837494,-38.559445,ETUFOR,2022,EPSG: 31984 (SIRGAS 2000 - UTM 24S); Codificação: UTF-8
vw_PontosdeOnibus.fid--780b70dd_194f2cc3853_-3745,112,POINT (-38.559689 -3.838285),1173,"AVENIDA L CJ JOSE WALTER, 1560",-3.838285,-38.559689,ETUFOR,2022,EPSG: 31984 (SIRGAS 2000 - UTM 24S); Codificação: UTF-8
vw_PontosdeOnibus.fid--780b70dd_194f2cc3853_-3744,113,POINT (-38.559788 -3.84092),1179,"AVENIDA H CJ JOSE WALTER, 480",-3.84092,-38.559788,ETUFOR,2022,EPSG: 31984 (SIRGAS 2000 - UTM 24S); Codificação: UTF-8
vw_PontosdeOnibus.fid--780b70dd_194f2cc3853_-3743,114,POINT (-38.563777 -3.843241),1180,"AVENIDA DOS MARINHEIROS, 654",-3.843241,-38.563777,ETUFOR,2022,EPSG: 31984 (SIRGAS 2000 - UTM 24S); Codificação: UTF-8
vw_PontosdeOnibus.fid--780b70dd_194f2cc3853_-3742,115,POINT (-38.563857 -3.843162),1181,"AVENIDA DOS MARINHEIROS, 654",-3.843162,-38.563857,ETUFOR,2022,EPSG: 31984 (SIRGAS 2000 - UTM 24S); Codificação: UTF-8
vw_PontosdeOnibus.fid--780b70dd_194f2cc3853_-3741,116,POINT (-38.562454 -3.841217),1182,"RUA JOAO ARAUJO LIMA, 2196",-3.841217,-38.562454,ETUFOR,2022,EPSG: 31984 (SIRGAS 2000 - UTM 24S); Codificação: UTF-8
vw_PontosdeOnibus.fid--780b70dd_194f2cc3853_-3740,117,POINT (-38.565375 -3.84349),1183,"AVENIDA DOS MARINHEIROS, 750",-3.84349,-38.565375,ETUFOR,2022,EPSG: 31984 (SIRGAS 2000 - UTM 24S); Codificação: UTF-8
vw_PontosdeOnibus.fid--780b70dd_194f2cc3853_-373f,118,POINT (-38.554316 -3.836948),1184,"AVENIDA I CJ JOSE WALTER, 1480",-3.836948,-38.554316,ETUFOR,2022,EPSG: 31984 (SIRGAS 2000 - UTM 24S); Codificação: UTF-8
vw_PontosdeOnibus.fid--780b70dd_194f2cc3853_-373e,119,POINT (-38.500596 -3.834967),1191,"RUA STA EFIGENIA, 115",-3.834967,-38.500596,ETUFOR,2022,EPSG: 31984 (SIRGAS 2000 - UTM 24S); Codificação: UTF-8
vw_PontosdeOnibus.fid--780b70dd_194f2cc3853_-373d,120,POINT (-38.499074 -3.835369),1193,"RUA ANGELICA GURGEL, SN",-3.835369,-38.499074,ETUFOR,2022,EPSG: 31984 (SIRGAS 2000 - UTM 24S); Codificação: UTF-8
vw_PontosdeOnibus.fid--780b70dd_194f2cc3853_-373c,121,POINT (-38.497901 -3.834812),1196,"RUA GUARUJA, 404",-3.834812,-38.497901,ETUFOR,2022,EPSG: 31984 (SIRGAS 2000 - UTM 24S); Codificação: UTF-8
vw_PontosdeOnibus.fid--780b70dd_194f2cc3853_-373b,122,POINT (-38.496317 -3.834846),1197,"RUA GUARUJA, 336",-3.834846,-38.496317,ETUFOR,2022,EPSG: 31984 (SIRGAS 2000 - UTM 24S); Codificação: UTF-8
vw_PontosdeOnibus.fid--780b70dd_194f2cc3853_-373a,123,POINT (-38.49751 -3.832307),1199,"AVENIDA TEN JURANDIR DE ALENCAR, SN",-3.832307,-38.49751,ETUFOR,2022,EPSG: 31984 (SIRGAS 2000 - UTM 24S); Codificação: UTF-8
vw_PontosdeOnibus.fid--780b70dd_194f2cc3853_-3739,124,POINT (-38.591409 -3.703877),12,"AVENIDA CEL CARVALHO, 163",-3.703877,-38.591409,ETUFOR,2022,EPSG: 31984 (SIRGAS 2000 - UTM 24S); Codificação: UTF-8
vw_PontosdeOnibus.fid--780b70dd_194f2cc3853_-3738,125,POINT (-38.597278 -3.715936),120,"AVENIDA DOM ALOISIO LORSCHEIDER, 1183",-3.715936,-38.597278,ETUFOR,2022,EPSG: 31984 (SIRGAS 2000 - UTM 24S); Codificação: UTF-8
vw_PontosdeOnibus.fid--780b70dd_194f2cc3853_-3737,126,POINT (-38.493621 -3.828818),1201,"AVENIDA FREI CIRILO, 126",-3.828818,-38.493621,ETUFOR,2022,EPSG: 31984 (SIRGAS 2000 - UTM 24S); Codificação: UTF-8
vw_PontosdeOnibus.fid--780b70dd_194f2cc3853_-3736,127,POINT (-38.493434 -3.828086),1202,"AVENIDA FREI CIRILO, 81",-3.828086,-38.493434,ETUFOR,2022,EPSG: 31984 (SIRGAS 2000 - UTM 24S); Codificação: UTF-8
vw_PontosdeOnibus.fid--780b70dd_194f2cc3853_-3735,128,POINT (-38.495075 -3.831666),1203,"RUA MANUEL C BRANCO, 54",-3.831666,-38.495075,ETUFOR,2022,EPSG: 31984 (SIRGAS 2000 - UTM 24S); Codificação: UTF-8
vw_PontosdeOnibus.fid--780b70dd_194f2cc3853_-3734,129,POINT (-38.494626 -3.83272),1204,"RUA EDUARDO PORTO, 57",-3.83272,-38.494626,ETUFOR,2022,EPSG: 31984 (SIRGAS 2000 - UTM 24S); Codificação: UTF-8
vw_PontosdeOnibus.fid--780b70dd_194f2cc3853_-3733,130,POINT (-38.4927 -3.831807),1206,"RUA MANUEL C BRANCO, 316",-3.831807,-38.4927,ETUFOR,2022,EPSG: 31984 (SIRGAS 2000 - UTM 24S); Codificação: UTF-8
vw_PontosdeOnibus.fid--780b70dd_194f2cc3853_-3732,131,POINT (-38.494954 -3.83487),1207,"RUA GUARUJA, 626",-3.83487,-38.494954,ETUFOR,2022,EPSG: 31984 (SIRGAS 2000 - UTM 24S); Codificação: UTF-8
vw_PontosdeOnibus.fid--780b70dd_194f2cc3853_-3731,132,POINT (-38.494138 -3.835451),1209,"RUA PDE PEDRO DE ALENCAR, 888",-3.835451,-38.494138,ETUFOR,2022,EPSG: 31984 (SIRGAS 2000 - UTM 24S); Codificação: UTF-8
vw_PontosdeOnibus.fid--780b70dd_194f2cc3853_-3730,133,POINT (-38.494147 -3.835772),1210,"RUA PDE PEDRO DE ALENCAR, 888",-3.835772,-38.494147,ETUFOR,2022,EPSG: 31984 (SIRGAS 2000 - UTM 24S); Codificação: UTF-8
vw_PontosdeOnibus.fid--780b70dd_194f2cc3853_-372f,134,POINT (-38.522164 -3.723043),1211,"AVENIDA MON TABOSA, 84",-3.723043,-38.522164,ETUFOR,2022,EPSG: 31984 (SIRGAS 2000 - UTM 24S); Codificação: UTF-8
vw_PontosdeOnibus.fid--780b70dd_194f2cc3853_-372e,135,POINT (-38.522037 -3.721115),1212,"RUA PESSOA ANTA, 96",-3.721115,-38.522037,ETUFOR,2022,EPSG: 31984 (SIRGAS 2000 - UTM 24S); Codificação: UTF-8
vw_PontosdeOnibus.fid--780b70dd_194f2cc3853_-372d,136,POINT (-38.522126 -3.721126),1213,"RUA PESSOA ANTA, 57",-3.721126,-38.522126,ETUFOR,2022,EPSG: 31984 (SIRGAS 2000 - UTM 24S); Codificação: UTF-8
vw_PontosdeOnibus.fid--780b70dd_194f2cc3853_-372c,137,POINT (-38.524429 -3.723415),1214,"AVENIDA ALBERTO NEPOMUCENO, SN",-3.723415,-38.524429,ETUFOR,2022,EPSG: 31984 (SIRGAS 2000 - UTM 24S); Codificação: UTF-8
vw_PontosdeOnibus.fid--780b70dd_194f2cc3853_-372b,138,POINT (-38.524008 -3.722916),1215,"AVENIDA ALBERTO NEPOMUCENO, SN",-3.722916,-38.524008,ETUFOR,2022,EPSG: 31984 (SIRGAS 2000 - UTM 24S); Codificação: UTF-8
vw_PontosdeOnibus.fid--780b70dd_194f2cc3853_-372a,139,POINT (-38.518805 -3.720675),1216,"AVENIDA ALM BARROSO, 511",-3.720675,-38.518805,ETUFOR,2022,EPSG: 31984 (SIRGAS 2000 - UTM 24S); Codificação: UTF-8
vw_PontosdeOnibus.fid--780b70dd_194f2cc3853_-3729,140,POINT (-38.519724 -3.720799),1217,"RUA ALM BARROSO, 411",-3.720799,-38.519724,ETUFOR,2022,EPSG: 31984 (SIRGAS 2000 - UTM 24S); Codificação: UTF-8
vw_PontosdeOnibus.fid--780b70dd_194f2cc3853_-3728,141,POINT (-38.519336 -3.721442),1218,"RUA ALM JACEGUAI, SN",-3.721442,-38.519336,ETUFOR,2022,EPSG: 31984 (SIRGAS 2000 - UTM 24S); Codificação: UTF-8
vw_PontosdeOnibus.fid--780b70dd_194f2cc3853_-3727,142,POINT (-38.516575 -3.720378),1219,"AVENIDA ALM BARROSO, 714",-3.720378,-38.516575,ETUFOR,2022,EPSG: 31984 (SIRGAS 2000 - UTM 24S); Codificação: UTF-8
vw_PontosdeOnibus.fid--780b70dd_194f2cc3853_-3726,143,POINT (-38.597431 -3.71618),122,"AVENIDA AMBIENTALISTA ARY THIERS, 235",-3.71618,-38.597431,ETUFOR,2022,EPSG: 31984 (SIRGAS 2000 - UTM 24S); Codificação: UTF-8
vw_PontosdeOnibus.fid--780b70dd_194f2cc3853_-3725,144,POINT (-38.517285 -3.720477),1220,"AVENIDA ALM BARROSO, 668",-3.720477,-38.517285,ETUFOR,2022,EPSG: 31984 (SIRGAS 2000 - UTM 24S); Codificação: UTF-8
vw_PontosdeOnibus.fid--780b70dd_194f2cc3853_-3724,145,POINT (-38.520141 -3.724039),1221,"RUA RUFINO DE ALENCAR, 346",-3.724039,-38.520141,ETUFOR,2022,EPSG: 31984 (SIRGAS 2000 - UTM 24S); Codificação: UTF-8
vw_PontosdeOnibus.fid--780b70dd_194f2cc3853_-3723,146,POINT (-38.519657 -3.724059),1222,"AVENIDA DOM MANUEL, 3",-3.724059,-38.519657,ETUFOR,2022,EPSG: 31984 (SIRGAS 2000 - UTM 24S); Codificação: UTF-8
vw_PontosdeOnibus.fid--780b70dd_194f2cc3853_-3722,147,POINT (-38.520185 -3.725355),1223,"AVENIDA DOM MANUEL, 140",-3.725355,-38.520185,ETUFOR,2022,EPSG: 31984 (SIRGAS 2000 - UTM 24S); Codificação: UTF-8
vw_PontosdeOnibus.fid--780b70dd_194f2cc3853_-3721,148,POINT (-38.520539 -3.726753),1224,"AVENIDA DOM MANUEL, 283",-3.726753,-38.520539,ETUFOR,2022,EPSG: 31984 (SIRGAS 2000 - UTM 24S); Codificação: UTF-8
vw_PontosdeOnibus.fid--780b70dd_194f2cc3853_-3720,149,POINT (-38.518643 -3.726491),1225,"RUA PEREIRA FILGUEIRAS, 442",-3.726491,-38.518643,ETUFOR,2022,EPSG: 31984 (SIRGAS 2000 - UTM 24S); Codificação: UTF-8
vw_PontosdeOnibus.fid--780b70dd_194f2cc3853_-371f,150,POINT (-38.518592 -3.72494),1226,"RUA TEN BENEVOLO, 284",-3.72494,-38.518592,ETUFOR,2022,EPSG: 31984 (SIRGAS 2000 - UTM 24S); Codificação: UTF-8
vw_PontosdeOnibus.fid--780b70dd_194f2cc3853_-371e,151,POINT (-38.516619 -3.727148),1227,"RUA PEREIRA FILGUEIRAS, 713",-3.727148,-38.516619,ETUFOR,2022,EPSG: 31984 (SIRGAS 2000 - UTM 24S); Codificação: UTF-8
vw_PontosdeOnibus.fid--780b70dd_194f2cc3853_-371d,152,POINT (-38.515848 -3.725778),1228,"RUA TEN BENEVOLO, 595",-3.725778,-38.515848,ETUFOR,2022,EPSG: 31984 (SIRGAS 2000 - UTM 24S); Codificação: UTF-8
vw_PontosdeOnibus.fid--780b70dd_194f2cc3853_-371c,153,POINT (-38.514299 -3.726253),1229,"RUA TEN BENEVOLO, 765",-3.726253,-38.514299,ETUFOR,2022,EPSG: 31984 (SIRGAS 2000 - UTM 24S); Codificação: UTF-8
vw_PontosdeOnibus.fid--780b70dd_194f2cc3853_-371b,154,POINT (-38.597994 -3.716272),123,"AVENIDA AMBIENTALISRA  ARY THIERS, 241",-3.716272,-38.597994,ETUFOR,2022,EPSG: 31984 (SIRGAS 2000 - UTM 24S); Codificação: UTF-8
vw_PontosdeOnibus.fid--780b70dd_194f2cc3853_-371a,155,POINT (-38.522965 -3.724302),1230,"RUA RUFINO DE ALENCAR, 100",-3.724302,-38.522965,ETUFOR,2022,EPSG: 31984 (SIRGAS 2000 - UTM 24S); Codificação: UTF-8
vw_PontosdeOnibus.fid--780b70dd_194f2cc3853_-3719,156,POINT (-38.512219 -3.720717),1231,"AVENIDA HIS RAIMUNDO GIRAO, 412",-3.720717,-38.512219,ETUFOR,2022,EPSG: 31984 (SIRGAS 2000 - UTM 24S); Codificação: UTF-8
vw_PontosdeOnibus.fid--780b70dd_194f2cc3853_-3718,157,POINT (-38.513173 -3.720523),1232,"AVENIDA HIS RAIMUNDO GIRAO, 363",-3.720523,-38.513173,ETUFOR,2022,EPSG: 31984 (SIRGAS 2000 - UTM 24S); Codificação: UTF-8
vw_PontosdeOnibus.fid--780b70dd_194f2cc3853_-3717,158,POINT (-38.511938 -3.727087),1236,"RUA TEN BENEVOLO, 1022",-3.727087,-38.511938,ETUFOR,2022,EPSG: 31984 (SIRGAS 2000 - UTM 24S); Codificação: UTF-8
vw_PontosdeOnibus.fid--780b70dd_194f2cc3853_-3716,159,POINT (-38.598861 -3.715787),124,"AVENIDA D CJ PLANALTO BARRA, 1273",-3.715787,-38.598861,ETUFOR,2022,EPSG: 31984 (SIRGAS 2000 - UTM 24S); Codificação: UTF-8
vw_PontosdeOnibus.fid--780b70dd_194f2cc3853_-3715,160,POINT (-38.504122 -3.726733),1240,"AVENIDA BAR STUDART, 300",-3.726733,-38.504122,ETUFOR,2022,EPSG: 31984 (SIRGAS 2000 - UTM 24S); Codificação: UTF-8
vw_PontosdeOnibus.fid--780b70dd_194f2cc3853_-3714,161,POINT (-38.505883 -3.724429),1244,"AVENIDA MON TABOSA, 176",-3.724429,-38.505883,ETUFOR,2022,EPSG: 31984 (SIRGAS 2000 - UTM 24S); Codificação: UTF-8
vw_PontosdeOnibus.fid--780b70dd_194f2cc3853_-3713,162,POINT (-38.500762 -3.725558),1245,"AVENIDA ABOLICAO, SN",-3.725558,-38.500762,ETUFOR,2022,EPSG: 31984 (SIRGAS 2000 - UTM 24S); Codificação: UTF-8
vw_PontosdeOnibus.fid--780b70dd_194f2cc3853_-3712,163,POINT (-38.500912 -3.725644),1246,"AVENIDA ABOLICAO, 2026",-3.725644,-38.500912,ETUFOR,2022,EPSG: 31984 (SIRGAS 2000 - UTM 24S); Codificação: UTF-8
vw_PontosdeOnibus.fid--780b70dd_194f2cc3853_-3711,164,POINT (-38.497018 -3.726891),1248,"AVENIDA ABOLICAO, 2456",-3.726891,-38.497018,ETUFOR,2022,EPSG: 31984 (SIRGAS 2000 - UTM 24S); Codificação: UTF-8
vw_PontosdeOnibus.fid--780b70dd_194f2cc3853_-3710,165,POINT (-38.496879 -3.726804),1249,"AVENIDA ABOLICAO, 2456",-3.726804,-38.496879,ETUFOR,2022,EPSG: 31984 (SIRGAS 2000 - UTM 24S); Codificação: UTF-8
vw_PontosdeOnibus.fid--780b70dd_194f2cc3853_-370f,166,POINT (-38.599995 -3.715399),125,"AVENIDA ERS, 607",-3.715399,-38.599995,ETUFOR,2022,EPSG: 31984 (SIRGAS 2000 - UTM 24S); Codificação: UTF-8
vw_PontosdeOnibus.fid--780b70dd_194f2cc3853_-370e,167,POINT (-38.499006 -3.726116),1250,"AVENIDA ABOLICAO, SN",-3.726116,-38.499006,ETUFOR,2022,EPSG: 31984 (SIRGAS 2000 - UTM 24S); Codificação: UTF-8
vw_PontosdeOnibus.fid--780b70dd_194f2cc3853_-370d,168,POINT (-38.4928 -3.72696),1251,"AVENIDA ABOLICAO, 3000",-3.72696,-38.4928,ETUFOR,2022,EPSG: 31984 (SIRGAS 2000 - UTM 24S); Codificação: UTF-8
vw_PontosdeOnibus.fid--780b70dd_194f2cc3853_-370c,169,POINT (-38.494787 -3.727269),1253,"AVENIDA ABOLICAO, 2727",-3.727269,-38.494787,ETUFOR,2022,EPSG: 31984 (SIRGAS 2000 - UTM 24S); Codificação: UTF-8
vw_PontosdeOnibus.fid--780b70dd_194f2cc3853_-370b,170,POINT (-38.494929 -3.727185),1254,"AVENIDA ABOLICAO, 2727",-3.727185,-38.494929,ETUFOR,2022,EPSG: 31984 (SIRGAS 2000 - UTM 24S); Codificação: UTF-8
vw_PontosdeOnibus.fid--780b70dd_194f2cc3853_-370a,171,POINT (-38.489988 -3.726532),1256,"AVENIDA ABOLICAO, 3273",-3.726532,-38.489988,ETUFOR,2022,EPSG: 31984 (SIRGAS 2000 - UTM 24S); Codificação: UTF-8
vw_PontosdeOnibus.fid--780b70dd_194f2cc3853_-3709,172,POINT (-38.491243 -3.727361),1257,"AVENIDA JULIO IBIAPINA, 222",-3.727361,-38.491243,ETUFOR,2022,EPSG: 31984 (SIRGAS 2000 - UTM 24S); Codificação: UTF-8
vw_PontosdeOnibus.fid--780b70dd_194f2cc3853_-3708,173,POINT (-38.49098 -3.72656),1258,"AVENIDA ABOLICAO, 3207",-3.72656,-38.49098,ETUFOR,2022,EPSG: 31984 (SIRGAS 2000 - UTM 24S); Codificação: UTF-8
vw_PontosdeOnibus.fid--780b70dd_194f2cc3853_-3707,174,POINT (-38.598662 -3.717613),126,"AVENIDA J CJ POLAR, 1416",-3.717613,-38.598662,ETUFOR,2022,EPSG: 31984 (SIRGAS 2000 - UTM 24S); Codificação: UTF-8
vw_PontosdeOnibus.fid--780b70dd_194f2cc3853_-3706,175,POINT (-38.487029 -3.726058),1260,"AVENIDA ABOLICAO, 3555",-3.726058,-38.487029,ETUFOR,2022,EPSG: 31984 (SIRGAS 2000 - UTM 24S); Codificação: UTF-8
vw_PontosdeOnibus.fid--780b70dd_194f2cc3853_-3705,176,POINT (-38.487058 -3.725935),1261,"AVENIDA ABOLICAO, 3555",-3.725935,-38.487058,ETUFOR,2022,EPSG: 31984 (SIRGAS 2000 - UTM 24S); Codificação: UTF-8
vw_PontosdeOnibus.fid--780b70dd_194f2cc3853_-3704,177,POINT (-38.4857 -3.725627),1263,"AVENIDA ABOLICAO, 3796",-3.725627,-38.4857,ETUFOR,2022,EPSG: 31984 (SIRGAS 2000 - UTM 24S); Codificação: UTF-8
vw_PontosdeOnibus.fid--780b70dd_194f2cc3853_-3703,178,POINT (-38.482759 -3.724606),1264,"AVENIDA ABOLICAO, 4140",-3.724606,-38.482759,ETUFOR,2022,EPSG: 31984 (SIRGAS 2000 - UTM 24S); Codificação: UTF-8
vw_PontosdeOnibus.fid--780b70dd_194f2cc3853_-3702,179,POINT (-38.484131 -3.725369),1265,"AVENIDA ABOLICAO, SN",-3.725369,-38.484131,ETUFOR,2022,EPSG: 31984 (SIRGAS 2000 - UTM 24S); Codificação: UTF-8
vw_PontosdeOnibus.fid--780b70dd_194f2cc3853_-3701,180,POINT (-38.484145 -3.72525),1266,"AVENIDA ABOLICAO, SN",-3.72525,-38.484145,ETUFOR,2022,EPSG: 31984 (SIRGAS 2000 - UTM 24S); Codificação: UTF-8
vw_PontosdeOnibus.fid--780b70dd_194f2cc3853_-3700,181,POINT (-38.464454 -3.723007),1269,"RUA PRO ALVARO COSTA, 195",-3.723007,-38.464454,ETUFOR,2022,EPSG: 31984 (SIRGAS 2000 - UTM 24S); Codificação: UTF-8
vw_PontosdeOnibus.fid--780b70dd_194f2cc3853_-36ff,182,POINT (-38.595537 -3.717707),127,"AVENIDA MOZART P.LUCENA, 1720",-3.717707,-38.595537,ETUFOR,2022,EPSG: 31984 (SIRGAS 2000 - UTM 24S); Codificação: UTF-8
vw_PontosdeOnibus.fid--780b70dd_194f2cc3853_-36fe,183,POINT (-38.464413 -3.720988),1270,"AVENIDA CESAR CALS, 350",-3.720988,-38.464413,ETUFOR,2022,EPSG: 31984 (SIRGAS 2000 - UTM 24S); Codificação: UTF-8
vw_PontosdeOnibus.fid--780b70dd_194f2cc3853_-36fd,184,POINT (-38.464319 -3.72119),1271,"AVENIDA CESAR CALS, 350",-3.72119,-38.464319,ETUFOR,2022,EPSG: 31984 (SIRGAS 2000 - UTM 24S); Codificação: UTF-8
vw_PontosdeOnibus.fid--780b70dd_194f2cc3853_-36fc,185,POINT (-38.465189 -3.7193),1272,"AVENIDA CESAR CALS, 130",-3.7193,-38.465189,ETUFOR,2022,EPSG: 31984 (SIRGAS 2000 - UTM 24S); Codificação: UTF-8
vw_PontosdeOnibus.fid--780b70dd_194f2cc3853_-36fb,186,POINT (-38.463639 -3.719292),1273,"AVENIDA ZEZE DIOGO, 1427",-3.719292,-38.463639,ETUFOR,2022,EPSG: 31984 (SIRGAS 2000 - UTM 24S); Codificação: UTF-8
vw_PontosdeOnibus.fid--780b70dd_194f2cc3853_-36fa,187,POINT (-38.468878 -3.726863),1274,"RUA BRISA DO MAR, 1100",-3.726863,-38.468878,ETUFOR,2022,EPSG: 31984 (SIRGAS 2000 - UTM 24S); Codificação: UTF-8
vw_PontosdeOnibus.fid--780b70dd_194f2cc3853_-36f9,188,POINT (-38.468843 -3.726934),1275,"RUA BRISA DO MAR, 1121",-3.726934,-38.468843,ETUFOR,2022,EPSG: 31984 (SIRGAS 2000 - UTM 24S); Codificação: UTF-8
vw_PontosdeOnibus.fid--780b70dd_194f2cc3853_-36f8,189,POINT (-38.469809 -3.726948),1276,"RUA AIRTON SENNA, 936",-3.726948,-38.469809,ETUFOR,2022,EPSG: 31984 (SIRGAS 2000 - UTM 24S); Codificação: UTF-8
vw_PontosdeOnibus.fid--780b70dd_194f2cc3853_-36f7,190,POINT (-38.465684 -3.724829),1278,"AVENIDA , 440",-3.724829,-38.465684,ETUFOR,2022,EPSG: 31984 (SIRGAS 2000 - UTM 24S); Codificação: UTF-8
vw_PontosdeOnibus.fid--780b70dd_194f2cc3853_-36f6,191,POINT (-38.464367 -3.726048),1279,"RUA OLIVEIRA FILHO, 890",-3.726048,-38.464367,ETUFOR,2022,EPSG: 31984 (SIRGAS 2000 - UTM 24S); Codificação: UTF-8
vw_PontosdeOnibus.fid--780b70dd_194f2cc3853_-36f5,192,POINT (-38.595375 -3.717146),128,"AVENIDA MOZART P.LUCENA, 1680",-3.717146,-38.595375,ETUFOR,2022,EPSG: 31984 (SIRGAS 2000 - UTM 24S); Codificação: UTF-8
vw_PontosdeOnibus.fid--780b70dd_194f2cc3853_-36f4,193,POINT (-38.464076 -3.72665),1282,"RUA OLIVEIRA FILHO, 411",-3.72665,-38.464076,ETUFOR,2022,EPSG: 31984 (SIRGAS 2000 - UTM 24S); Codificação: UTF-8
vw_PontosdeOnibus.fid--780b70dd_194f2cc3853_-36f3,194,POINT (-38.461362 -3.726894),1283,"RUA CESAR CALS, 975",-3.726894,-38.461362,ETUFOR,2022,EPSG: 31984 (SIRGAS 2000 - UTM 24S); Codificação: UTF-8
vw_PontosdeOnibus.fid--780b70dd_194f2cc3853_-36f2,195,POINT (-38.46141 -3.726806),1284,"AVENIDA CESAR CALS, 1030",-3.726806,-38.46141,ETUFOR,2022,EPSG: 31984 (SIRGAS 2000 - UTM 24S); Codificação: UTF-8
vw_PontosdeOnibus.fid--780b70dd_194f2cc3853_-36f1,196,POINT (-38.462289 -3.725206),1285,"AVENIDA CESAR CALS, 876",-3.725206,-38.462289,ETUFOR,2022,EPSG: 31984 (SIRGAS 2000 - UTM 24S); Codificação: UTF-8
vw_PontosdeOnibus.fid--780b70dd_194f2cc3853_-36f0,197,POINT (-38.462328 -3.725136),1286,"AVENIDA CESAR CALS, 876",-3.725136,-38.462328,ETUFOR,2022,EPSG: 31984 (SIRGAS 2000 - UTM 24S); Codificação: UTF-8
vw_PontosdeOnibus.fid--780b70dd_194f2cc3853_-36ef,198,POINT (-38.463288 -3.723312),1287,"AVENIDA CESAR CALS, 510",-3.723312,-38.463288,ETUFOR,2022,EPSG: 31984 (SIRGAS 2000 - UTM 24S); Codificação: UTF-8
vw_PontosdeOnibus.fid--780b70dd_194f2cc3853_-36ee,199,POINT (-38.463311 -3.723267),1288,"AVENIDA CESAR CALS, 560",-3.723267,-38.463311,ETUFOR,2022,EPSG: 31984 (SIRGAS 2000 - UTM 24S); Codificação: UTF-8
vw_PontosdeOnibus.fid--780b70dd_194f2cc3853_-36ed,200,POINT (-38.595112 -3.717388),129,"RUA CIDADE PALHANO, 730",-3.717388,-38.595112,ETUFOR,2022,EPSG: 31984 (SIRGAS 2000 - UTM 24S); Codificação: UTF-8
vw_PontosdeOnibus.fid--780b70dd_194f2cc3853_-36ec,201,POINT (-38.614082 -3.762772),1292,"AVENIDA J CJ CEARA, 623",-3.762772,-38.614082,ETUFOR,2022,EPSG: 31984 (SIRGAS 2000 - UTM 24S); Codificação: UTF-8
vw_PontosdeOnibus.fid--780b70dd_194f2cc3853_-36eb,202,POINT (-38.608058 -3.758979),1296,"AVENIDA C CJ CEARA, 73",-3.758979,-38.608058,ETUFOR,2022,EPSG: 31984 (SIRGAS 2000 - UTM 24S); Codificação: UTF-8
vw_PontosdeOnibus.fid--780b70dd_194f2cc3853_-36ea,203,POINT (-38.608023 -3.758907),1297,"AVENIDA C CJ CEARA, 73",-3.758907,-38.608023,ETUFOR,2022,EPSG: 31984 (SIRGAS 2000 - UTM 24S); Codificação: UTF-8
vw_PontosdeOnibus.fid--780b70dd_194f2cc3853_-36e9,204,POINT (-38.591232 -3.704985),13,"AVENIDA CEL CARVALHO, 113",-3.704985,-38.591232,ETUFOR,2022,EPSG: 31984 (SIRGAS 2000 - UTM 24S); Codificação: UTF-8
vw_PontosdeOnibus.fid--780b70dd_194f2cc3853_-36e8,205,POINT (-38.594217 -3.717651),130,"RUA CIDADE PALHANO, 601",-3.717651,-38.594217,ETUFOR,2022,EPSG: 31984 (SIRGAS 2000 - UTM 24S); Codificação: UTF-8
vw_PontosdeOnibus.fid--780b70dd_194f2cc3853_-36e7,206,POINT (-38.604746 -3.755365),1301,"RUA TAILANDIA, 531",-3.755365,-38.604746,ETUFOR,2022,EPSG: 31984 (SIRGAS 2000 - UTM 24S); Codificação: UTF-8
vw_PontosdeOnibus.fid--780b70dd_194f2cc3853_-36e6,207,POINT (-38.606687 -3.759027),1302,"AVENIDA E CJ CEARA, 340",-3.759027,-38.606687,ETUFOR,2022,EPSG: 31984 (SIRGAS 2000 - UTM 24S); Codificação: UTF-8
vw_PontosdeOnibus.fid--780b70dd_194f2cc3853_-36e5,208,POINT (-38.606471 -3.759114),1303,"AVENIDA E CJ CEARA, 280",-3.759114,-38.606471,ETUFOR,2022,EPSG: 31984 (SIRGAS 2000 - UTM 24S); Codificação: UTF-8
vw_PontosdeOnibus.fid--780b70dd_194f2cc3853_-36e4,209,POINT (-38.601244 -3.756208),1304,"RUA PERILIO TEIXEIRA, 1056",-3.756208,-38.601244,ETUFOR,2022,EPSG: 31984 (SIRGAS 2000 - UTM 24S); Codificação: UTF-8
vw_PontosdeOnibus.fid--780b70dd_194f2cc3853_-36e3,210,POINT (-38.60187 -3.755412),1306,"RUA JOSE MENDONCA, 896",-3.755412,-38.60187,ETUFOR,2022,EPSG: 31984 (SIRGAS 2000 - UTM 24S); Codificação: UTF-8
vw_PontosdeOnibus.fid--780b70dd_194f2cc3853_-36e2,211,POINT (-38.602304 -3.757768),1307,"RUA JOSE MENDONCA, 531",-3.757768,-38.602304,ETUFOR,2022,EPSG: 31984 (SIRGAS 2000 - UTM 24S); Codificação: UTF-8
vw_PontosdeOnibus.fid--780b70dd_194f2cc3853_-36e1,212,POINT (-38.60154 -3.757706),1309,"RUA PERILIO TEIXEIRA, 800",-3.757706,-38.60154,ETUFOR,2022,EPSG: 31984 (SIRGAS 2000 - UTM 24S); Codificação: UTF-8
vw_PontosdeOnibus.fid--780b70dd_194f2cc3853_-36e0,213,POINT (-38.595202 -3.716537),131,"AVENIDA MOZART P.LUCENA, 1560",-3.716537,-38.595202,ETUFOR,2022,EPSG: 31984 (SIRGAS 2000 - UTM 24S); Codificação: UTF-8
vw_PontosdeOnibus.fid--780b70dd_194f2cc3853_-36df,214,POINT (-38.609643 -3.762913),1312,"AVENIDA C CJ CEARA, 475",-3.762913,-38.609643,ETUFOR,2022,EPSG: 31984 (SIRGAS 2000 - UTM 24S); Codificação: UTF-8
vw_PontosdeOnibus.fid--780b70dd_194f2cc3853_-36de,215,POINT (-38.609136 -3.761626),1314,"AVENIDA C CJ CEARA, 337",-3.761626,-38.609136,ETUFOR,2022,EPSG: 31984 (SIRGAS 2000 - UTM 24S); Codificação: UTF-8
vw_PontosdeOnibus.fid--780b70dd_194f2cc3853_-36dd,216,POINT (-38.609107 -3.76155),1315,"AVENIDA C CJ CEARA, 337A",-3.76155,-38.609107,ETUFOR,2022,EPSG: 31984 (SIRGAS 2000 - UTM 24S); Codificação: UTF-8
vw_PontosdeOnibus.fid--780b70dd_194f2cc3853_-36dc,217,POINT (-38.605414 -3.759524),1318,"AVENIDA E CJ CEARA, 167",-3.759524,-38.605414,ETUFOR,2022,EPSG: 31984 (SIRGAS 2000 - UTM 24S); Codificação: UTF-8
vw_PontosdeOnibus.fid--780b70dd_194f2cc3853_-36db,218,POINT (-38.605331 -3.759556),1319,"AVENIDA E/CJ CEARÁ, 172",-3.759556,-38.605331,ETUFOR,2022,EPSG: 31984 (SIRGAS 2000 - UTM 24S); Codificação: UTF-8
vw_PontosdeOnibus.fid--780b70dd_194f2cc3853_-36da,219,POINT (-38.596358 -3.716445),132,"AVENIDA AMBIENTALISTAARY THIERS, 131",-3.716445,-38.596358,ETUFOR,2022,EPSG: 31984 (SIRGAS 2000 - UTM 24S); Codificação: UTF-8
vw_PontosdeOnibus.fid--780b70dd_194f2cc3853_-36d9,220,POINT (-38.600652 -3.763013),1320,"RUA 30 DE MAIO    (D73), 552",-3.763013,-38.600652,ETUFOR,2022,EPSG: 31984 (SIRGAS 2000 - UTM 24S); Codificação: UTF-8
vw_PontosdeOnibus.fid--780b70dd_194f2cc3853_-36d8,221,POINT (-38.603574 -3.760386),1322,"AVENIDA D CJ CEARA, 958",-3.760386,-38.603574,ETUFOR,2022,EPSG: 31984 (SIRGAS 2000 - UTM 24S); Codificação: UTF-8
vw_PontosdeOnibus.fid--780b70dd_194f2cc3853_-36d7,222,POINT (-38.603607 -3.760296),1323,"AVENIDA D CJ CEARA, 965",-3.760296,-38.603607,ETUFOR,2022,EPSG: 31984 (SIRGAS 2000 - UTM 24S); Codificação: UTF-8
vw_PontosdeOnibus.fid--780b70dd_194f2cc3853_-36d6,223,POINT (-38.60289 -3.760879),1324,"RUA JOSE MENDONCA, 188",-3.760879,-38.60289,ETUFOR,2022,EPSG: 31984 (SIRGAS 2000 - UTM 24S); Codificação: UTF-8
vw_PontosdeOnibus.fid--780b70dd_194f2cc3853_-36d5,224,POINT (-38.615486 -3.766081),1326,"AVENIDA J CJ CEARA, 917",-3.766081,-38.615486,ETUFOR,2022,EPSG: 31984 (SIRGAS 2000 - UTM 24S); Codificação: UTF-8
vw_PontosdeOnibus.fid--780b70dd_194f2cc3853_-36d4,225,POINT (-38.61599 -3.767204),1328,"AVENIDA J CJ CEARA, 1035",-3.767204,-38.61599,ETUFOR,2022,EPSG: 31984 (SIRGAS 2000 - UTM 24S); Codificação: UTF-8
vw_PontosdeOnibus.fid--780b70dd_194f2cc3853_-36d3,226,POINT (-38.612935 -3.764951),1329,"AVENIDA MIN ALBUQUERQUE LIMA, 180",-3.764951,-38.612935,ETUFOR,2022,EPSG: 31984 (SIRGAS 2000 - UTM 24S); Codificação: UTF-8
vw_PontosdeOnibus.fid--780b70dd_194f2cc3853_-36d2,227,POINT (-38.594688 -3.714771),133,"AVENIDA MOZART P.LUCENA, 1357",-3.714771,-38.594688,ETUFOR,2022,EPSG: 31984 (SIRGAS 2000 - UTM 24S); Codificação: UTF-8
vw_PontosdeOnibus.fid--780b70dd_194f2cc3853_-36d1,228,POINT (-38.613567 -3.764364),1330,"AVENIDA MIN ALBUQUERQUE LIMA, 184",-3.764364,-38.613567,ETUFOR,2022,EPSG: 31984 (SIRGAS 2000 - UTM 24S); Codificação: UTF-8
vw_PontosdeOnibus.fid--780b70dd_194f2cc3853_-36d0,229,POINT (-38.614741 -3.764256),1332,"AVENIDA J CJ CEARA, 653",-3.764256,-38.614741,ETUFOR,2022,EPSG: 31984 (SIRGAS 2000 - UTM 24S); Codificação: UTF-8
vw_PontosdeOnibus.fid--780b70dd_194f2cc3853_-36cf,230,POINT (-38.619003 -3.772361),1333,"AVENIDA J CJ CEARA, 2892",-3.772361,-38.619003,ETUFOR,2022,EPSG: 31984 (SIRGAS 2000 - UTM 24S); Codificação: UTF-8
vw_PontosdeOnibus.fid--780b70dd_194f2cc3853_-36ce,231,POINT (-38.618829 -3.772026),1334,"AVENIDA J CJ CEARA, 2892",-3.772026,-38.618829,ETUFOR,2022,EPSG: 31984 (SIRGAS 2000 - UTM 24S); Codificação: UTF-8
vw_PontosdeOnibus.fid--780b70dd_194f2cc3853_-36cd,232,POINT (-38.617182 -3.769359),1335,"AVENIDA J CJ CEARA, 2250",-3.769359,-38.617182,ETUFOR,2022,EPSG: 31984 (SIRGAS 2000 - UTM 24S); Codificação: UTF-8
vw_PontosdeOnibus.fid--780b70dd_194f2cc3853_-36cc,233,POINT (-38.61727 -3.769481),1336,"AVENIDA J CJ CEARA, 2240",-3.769481,-38.61727,ETUFOR,2022,EPSG: 31984 (SIRGAS 2000 - UTM 24S); Codificação: UTF-8
vw_PontosdeOnibus.fid--780b70dd_194f2cc3853_-36cb,234,POINT (-38.615105 -3.77225),1337,"AVENIDA C CJ CEARA, 1625",-3.77225,-38.615105,ETUFOR,2022,EPSG: 31984 (SIRGAS 2000 - UTM 24S); Codificação: UTF-8
vw_PontosdeOnibus.fid--780b70dd_194f2cc3853_-36ca,235,POINT (-38.618228 -3.770863),1339,"AVENIDA J CJ CEARA, 2052",-3.770863,-38.618228,ETUFOR,2022,EPSG: 31984 (SIRGAS 2000 - UTM 24S); Codificação: UTF-8
vw_PontosdeOnibus.fid--780b70dd_194f2cc3853_-36c9,236,POINT (-38.618212 -3.770835),1340,"AVENIDA J CJ CEARA, 2580",-3.770835,-38.618212,ETUFOR,2022,EPSG: 31984 (SIRGAS 2000 - UTM 24S); Codificação: UTF-8
vw_PontosdeOnibus.fid--780b70dd_194f2cc3853_-36c8,237,POINT (-38.614471 -3.77156),1341,"AVENIDA C CJ CEARA, 816",-3.77156,-38.614471,ETUFOR,2022,EPSG: 31984 (SIRGAS 2000 - UTM 24S); Codificação: UTF-8
vw_PontosdeOnibus.fid--780b70dd_194f2cc3853_-36c7,238,POINT (-38.613511 -3.769231),1344,"AVENIDA C CJ CEARA, 1235",-3.769231,-38.613511,ETUFOR,2022,EPSG: 31984 (SIRGAS 2000 - UTM 24S); Codificação: UTF-8
vw_PontosdeOnibus.fid--780b70dd_194f2cc3853_-36c6,239,POINT (-38.613496 -3.769214),1345,"AVENIDA C CJ CEARA, 1215",-3.769214,-38.613496,ETUFOR,2022,EPSG: 31984 (SIRGAS 2000 - UTM 24S); Codificação: UTF-8
vw_PontosdeOnibus.fid--780b70dd_194f2cc3853_-36c5,240,POINT (-38.6103 -3.764566),1348,"AVENIDA C CJ CEARA, 635",-3.764566,-38.6103,ETUFOR,2022,EPSG: 31984 (SIRGAS 2000 - UTM 24S); Codificação: UTF-8
vw_PontosdeOnibus.fid--780b70dd_194f2cc3853_-36c4,241,POINT (-38.610239 -3.764416),1349,"AVENIDA C CJ CEARA, 478",-3.764416,-38.610239,ETUFOR,2022,EPSG: 31984 (SIRGAS 2000 - UTM 24S); Codificação: UTF-8
vw_PontosdeOnibus.fid--780b70dd_194f2cc3853_-36c3,242,POINT (-38.592456 -3.718174),135,"RUA DOR AMADEU SA, 353",-3.718174,-38.592456,ETUFOR,2022,EPSG: 31984 (SIRGAS 2000 - UTM 24S); Codificação: UTF-8
vw_PontosdeOnibus.fid--780b70dd_194f2cc3853_-36c2,243,POINT (-38.610955 -3.766208),1350,"AVENIDA C CJ CEARA, SN",-3.766208,-38.610955,ETUFOR,2022,EPSG: 31984 (SIRGAS 2000 - UTM 24S); Codificação: UTF-8
vw_PontosdeOnibus.fid--780b70dd_194f2cc3853_-36c1,244,POINT (-38.610912 -3.7661),1351,"AVENIDA C CJ CEARA, 805",-3.7661,-38.610912,ETUFOR,2022,EPSG: 31984 (SIRGAS 2000 - UTM 24S); Codificação: UTF-8
vw_PontosdeOnibus.fid--780b70dd_194f2cc3853_-36c0,245,POINT (-38.609766 -3.767274),1352,"AVENIDA MIN ALBUQUERQUE LIMA, 178",-3.767274,-38.609766,ETUFOR,2022,EPSG: 31984 (SIRGAS 2000 - UTM 24S); Codificação: UTF-8
vw_PontosdeOnibus.fid--780b70dd_194f2cc3853_-36bf,246,POINT (-38.608945 -3.767753),1353,"AVENIDA MIN ALBUQUERQUE LIMA, 170",-3.767753,-38.608945,ETUFOR,2022,EPSG: 31984 (SIRGAS 2000 - UTM 24S); Codificação: UTF-8
vw_PontosdeOnibus.fid--780b70dd_194f2cc3853_-36be,247,POINT (-38.608579 -3.767976),1354,"AVENIDA MIN ALBUQUERQUE LIMA, 285",-3.767976,-38.608579,ETUFOR,2022,EPSG: 31984 (SIRGAS 2000 - UTM 24S); Codificação: UTF-8
vw_PontosdeOnibus.fid--780b70dd_194f2cc3853_-36bd,248,POINT (-38.607247 -3.768334),1355,"AVENIDA ALANIS MARIA LAURINDO OLIVEIRA, 760",-3.768334,-38.607247,ETUFOR,2022,EPSG: 31984 (SIRGAS 2000 - UTM 24S); Codificação: UTF-8
vw_PontosdeOnibus.fid--780b70dd_194f2cc3853_-36bc,249,POINT (-38.606178 -3.766652),1356,"AVENIDA B CJ CEARA, 550",-3.766652,-38.606178,ETUFOR,2022,EPSG: 31984 (SIRGAS 2000 - UTM 24S); Codificação: UTF-8
vw_PontosdeOnibus.fid--780b70dd_194f2cc3853_-36bb,250,POINT (-38.605929 -3.766256),1357,"AVENIDA ALANIS MARIA LAURINDO DE OLIVEIRA, 510",-3.766256,-38.605929,ETUFOR,2022,EPSG: 31984 (SIRGAS 2000 - UTM 24S); Codificação: UTF-8
vw_PontosdeOnibus.fid--780b70dd_194f2cc3853_-36ba,251,POINT (-38.605055 -3.764878),1358,"AVENIDA B CJ CEARA, 370",-3.764878,-38.605055,ETUFOR,2022,EPSG: 31984 (SIRGAS 2000 - UTM 24S); Codificação: UTF-8
vw_PontosdeOnibus.fid--780b70dd_194f2cc3853_-36b9,252,POINT (-38.591646 -3.718418),136,"RUA DOR AMADEU SA, 349",-3.718418,-38.591646,ETUFOR,2022,EPSG: 31984 (SIRGAS 2000 - UTM 24S); Codificação: UTF-8
vw_PontosdeOnibus.fid--780b70dd_194f2cc3853_-36b8,253,POINT (-38.601344 -3.76701),1360,"AVENIDA A CJ CEARA, 613",-3.76701,-38.601344,ETUFOR,2022,EPSG: 31984 (SIRGAS 2000 - UTM 24S); Codificação: UTF-8
vw_PontosdeOnibus.fid--780b70dd_194f2cc3853_-36b7,254,POINT (-38.602354 -3.767474),1361,"AVENIDA A CJ CEARA, 668",-3.767474,-38.602354,ETUFOR,2022,EPSG: 31984 (SIRGAS 2000 - UTM 24S); Codificação: UTF-8
vw_PontosdeOnibus.fid--780b70dd_194f2cc3853_-36b6,255,POINT (-38.602018 -3.76446),1362,"AVENIDA D CJ CEARA, 1429",-3.76446,-38.602018,ETUFOR,2022,EPSG: 31984 (SIRGAS 2000 - UTM 24S); Codificação: UTF-8
vw_PontosdeOnibus.fid--780b70dd_194f2cc3853_-36b5,256,POINT (-38.606688 -3.770619),1363,"AVENIDA L CJ CEARA, SN",-3.770619,-38.606688,ETUFOR,2022,EPSG: 31984 (SIRGAS 2000 - UTM 24S); Codificação: UTF-8
vw_PontosdeOnibus.fid--780b70dd_194f2cc3853_-36b4,257,POINT (-38.605991 -3.770136),1364,"AVENIDA MIN ALBUQUERQUE LIMA, 788",-3.770136,-38.605991,ETUFOR,2022,EPSG: 31984 (SIRGAS 2000 - UTM 24S); Codificação: UTF-8
vw_PontosdeOnibus.fid--780b70dd_194f2cc3853_-36b3,258,POINT (-38.606561 -3.769675),1365,"AVENIDA 151 CJ CEARA, 151",-3.769675,-38.606561,ETUFOR,2022,EPSG: 31984 (SIRGAS 2000 - UTM 24S); Codificação: UTF-8
vw_PontosdeOnibus.fid--780b70dd_194f2cc3853_-36b2,259,POINT (-38.605887 -3.770196),1366,"AVENIDA MIN ALBUQUERQUE LIMA, 804",-3.770196,-38.605887,ETUFOR,2022,EPSG: 31984 (SIRGAS 2000 - UTM 24S); Codificação: UTF-8
vw_PontosdeOnibus.fid--780b70dd_194f2cc3853_-36b1,260,POINT (-38.605088 -3.772101),1367,"AVENIDA A CJ CEARA, 1160",-3.772101,-38.605088,ETUFOR,2022,EPSG: 31984 (SIRGAS 2000 - UTM 24S); Codificação: UTF-8
vw_PontosdeOnibus.fid--780b70dd_194f2cc3853_-36b0,261,POINT (-38.604936 -3.771542),1368,"AVENIDA 727 CJ CEARA, 1230",-3.771542,-38.604936,ETUFOR,2022,EPSG: 31984 (SIRGAS 2000 - UTM 24S); Codificação: UTF-8
vw_PontosdeOnibus.fid--780b70dd_194f2cc3853_-36af,262,POINT (-38.604566 -3.770201),1369,"AVENIDA A CJ CEARA, 1028",-3.770201,-38.604566,ETUFOR,2022,EPSG: 31984 (SIRGAS 2000 - UTM 24S); Codificação: UTF-8
vw_PontosdeOnibus.fid--780b70dd_194f2cc3853_-36ae,263,POINT (-38.604344 -3.769418),1370,"AVENIDA A CJ CEARA, 1039",-3.769418,-38.604344,ETUFOR,2022,EPSG: 31984 (SIRGAS 2000 - UTM 24S); Codificação: UTF-8
vw_PontosdeOnibus.fid--780b70dd_194f2cc3853_-36ad,264,POINT (-38.603347 -3.767938),1371,"AVENIDA A CJ CEARA, 884",-3.767938,-38.603347,ETUFOR,2022,EPSG: 31984 (SIRGAS 2000 - UTM 24S); Codificação: UTF-8
vw_PontosdeOnibus.fid--780b70dd_194f2cc3853_-36ac,265,POINT (-38.607359 -3.768512),1372,"AVENIDA ALANIS MARIA LAURINDO OLIVEIRA, 760",-3.768512,-38.607359,ETUFOR,2022,EPSG: 31984 (SIRGAS 2000 - UTM 24S); Codificação: UTF-8
vw_PontosdeOnibus.fid--780b70dd_194f2cc3853_-36ab,266,POINT (-38.603607 -3.770887),1373,"AVENIDA MIN ALBUQUERQUE LIMA, 1058",-3.770887,-38.603607,ETUFOR,2022,EPSG: 31984 (SIRGAS 2000 - UTM 24S); Codificação: UTF-8
vw_PontosdeOnibus.fid--780b70dd_194f2cc3853_-36aa,267,POINT (-38.60272 -3.770992),1374,"AVENIDA MIN ALBUQUERQUE LIMA, 1113",-3.770992,-38.60272,ETUFOR,2022,EPSG: 31984 (SIRGAS 2000 - UTM 24S); Codificação: UTF-8
vw_PontosdeOnibus.fid--780b70dd_194f2cc3853_-36a9,268,POINT (-38.602349 -3.770979),1375,"AVENIDA MIN ALBUQUERQUE LIMA, 1412",-3.770979,-38.602349,ETUFOR,2022,EPSG: 31984 (SIRGAS 2000 - UTM 24S); Codificação: UTF-8
vw_PontosdeOnibus.fid--780b70dd_194f2cc3853_-36a8,269,POINT (-38.601647 -3.770867),1376,"AVENIDA MIN ALBUQUERQUE LIMA, 1225",-3.770867,-38.601647,ETUFOR,2022,EPSG: 31984 (SIRGAS 2000 - UTM 24S); Codificação: UTF-8
vw_PontosdeOnibus.fid--780b70dd_194f2cc3853_-36a7,270,POINT (-38.596999 -3.766568),1379,"AVENIDA I CJ CEARA, 335",-3.766568,-38.596999,ETUFOR,2022,EPSG: 31984 (SIRGAS 2000 - UTM 24S); Codificação: UTF-8
vw_PontosdeOnibus.fid--780b70dd_194f2cc3853_-36a6,271,POINT (-38.589574 -3.711183),138,"AVENIDA CEL CARVALHO, 1038",-3.711183,-38.589574,ETUFOR,2022,EPSG: 31984 (SIRGAS 2000 - UTM 24S); Codificação: UTF-8
vw_PontosdeOnibus.fid--780b70dd_194f2cc3853_-36a5,272,POINT (-38.597036 -3.7665),1380,"AVENIDA I CJ CEARA, 337",-3.7665,-38.597036,ETUFOR,2022,EPSG: 31984 (SIRGAS 2000 - UTM 24S); Codificação: UTF-8
vw_PontosdeOnibus.fid--780b70dd_194f2cc3853_-36a4,273,POINT (-38.59865 -3.765902),1381,"AVENIDA I CJ CEARA, 211",-3.765902,-38.59865,ETUFOR,2022,EPSG: 31984 (SIRGAS 2000 - UTM 24S); Codificação: UTF-8
vw_PontosdeOnibus.fid--780b70dd_194f2cc3853_-36a3,274,POINT (-38.59856 -3.76588),1382,"AVENIDA I CJ CEARA, 237",-3.76588,-38.59856,ETUFOR,2022,EPSG: 31984 (SIRGAS 2000 - UTM 24S); Codificação: UTF-8
vw_PontosdeOnibus.fid--780b70dd_194f2cc3853_-36a2,275,POINT (-38.600587 -3.766667),1383,"AVENIDA I CJ CEARA, 220",-3.766667,-38.600587,ETUFOR,2022,EPSG: 31984 (SIRGAS 2000 - UTM 24S); Codificação: UTF-8
vw_PontosdeOnibus.fid--780b70dd_194f2cc3853_-36a1,276,POINT (-38.593116 -3.766873),1384,"AVENIDA AUDISIO PINHEIRO, 1883",-3.766873,-38.593116,ETUFOR,2022,EPSG: 31984 (SIRGAS 2000 - UTM 24S); Codificação: UTF-8
vw_PontosdeOnibus.fid--780b70dd_194f2cc3853_-36a0,277,POINT (-38.598419 -3.770188),1389,"AVENIDA MIN ALBUQUERQUE LIMA, 1730",-3.770188,-38.598419,ETUFOR,2022,EPSG: 31984 (SIRGAS 2000 - UTM 24S); Codificação: UTF-8
vw_PontosdeOnibus.fid--780b70dd_194f2cc3853_-369f,278,POINT (-38.589429 -3.711356),139,"AVENIDA CEL CARVALHO, 1033",-3.711356,-38.589429,ETUFOR,2022,EPSG: 31984 (SIRGAS 2000 - UTM 24S); Codificação: UTF-8
vw_PontosdeOnibus.fid--780b70dd_194f2cc3853_-369e,279,POINT (-38.600153 -3.770544),1391,"AVENIDA MIN ALBUQUERQUE LIMA, 1431",-3.770544,-38.600153,ETUFOR,2022,EPSG: 31984 (SIRGAS 2000 - UTM 24S); Codificação: UTF-8
vw_PontosdeOnibus.fid--780b70dd_194f2cc3853_-369d,280,POINT (-38.600111 -3.770535),1392,"AVENIDA MIN ALBUQUERQUE LIMA, 1412",-3.770535,-38.600111,ETUFOR,2022,EPSG: 31984 (SIRGAS 2000 - UTM 24S); Codificação: UTF-8
vw_PontosdeOnibus.fid--780b70dd_194f2cc3853_-369c,281,POINT (-38.607703 -3.774932),1393,"AVENIDA L CJ CEARÁ, 135",-3.774932,-38.607703,ETUFOR,2022,EPSG: 31984 (SIRGAS 2000 - UTM 24S); Codificação: UTF-8
vw_PontosdeOnibus.fid--780b70dd_194f2cc3853_-369b,282,POINT (-38.610353 -3.774091),1395,"AVENIDA G CJ CEARA, 615",-3.774091,-38.610353,ETUFOR,2022,EPSG: 31984 (SIRGAS 2000 - UTM 24S); Codificação: UTF-8
vw_PontosdeOnibus.fid--780b70dd_194f2cc3853_-369a,283,POINT (-38.609249 -3.775687),1396,"AVENIDA H CJ CEARA, 1285",-3.775687,-38.609249,ETUFOR,2022,EPSG: 31984 (SIRGAS 2000 - UTM 24S); Codificação: UTF-8
vw_PontosdeOnibus.fid--780b70dd_194f2cc3853_-3699,284,POINT (-38.609297 -3.775693),1397,"AVENIDA H CJ CEARA, 1280",-3.775693,-38.609297,ETUFOR,2022,EPSG: 31984 (SIRGAS 2000 - UTM 24S); Codificação: UTF-8
vw_PontosdeOnibus.fid--780b70dd_194f2cc3853_-3698,285,POINT (-38.605791 -3.775133),1398,"AVENIDA H CJ CEARA, 901",-3.775133,-38.605791,ETUFOR,2022,EPSG: 31984 (SIRGAS 2000 - UTM 24S); Codificação: UTF-8
vw_PontosdeOnibus.fid--780b70dd_194f2cc3853_-3697,286,POINT (-38.605531 -3.775104),1399,"AVENIDA H CJ CEARA, 901",-3.775104,-38.605531,ETUFOR,2022,EPSG: 31984 (SIRGAS 2000 - UTM 24S); Codificação: UTF-8
vw_PontosdeOnibus.fid--780b70dd_194f2cc3853_-3696,287,POINT (-38.591227 -3.70349),14,"AVENIDA FRANCISCO SA, 7998",-3.70349,-38.591227,ETUFOR,2022,EPSG: 31984 (SIRGAS 2000 - UTM 24S); Codificação: UTF-8
vw_PontosdeOnibus.fid--780b70dd_194f2cc3853_-3695,288,POINT (-38.605785 -3.774638),1400,"AVENIDA A CJ CEARA, 1455",-3.774638,-38.605785,ETUFOR,2022,EPSG: 31984 (SIRGAS 2000 - UTM 24S); Codificação: UTF-8
vw_PontosdeOnibus.fid--780b70dd_194f2cc3853_-3694,289,POINT (-38.605698 -3.774326),1401,"AVENIDA 741 CJ CEARA, 201",-3.774326,-38.605698,ETUFOR,2022,EPSG: 31984 (SIRGAS 2000 - UTM 24S); Codificação: UTF-8
vw_PontosdeOnibus.fid--780b70dd_194f2cc3853_-3693,290,POINT (-38.604221 -3.77495),1402,"AVENIDA I CJ CEARA, 901",-3.77495,-38.604221,ETUFOR,2022,EPSG: 31984 (SIRGAS 2000 - UTM 24S); Codificação: UTF-8
vw_PontosdeOnibus.fid--780b70dd_194f2cc3853_-3692,291,POINT (-38.606192 -3.776091),1403,"RUA JOSE TORRES, 1576",-3.776091,-38.606192,ETUFOR,2022,EPSG: 31984 (SIRGAS 2000 - UTM 24S); Codificação: UTF-8
vw_PontosdeOnibus.fid--780b70dd_194f2cc3853_-3691,292,POINT (-38.604164 -3.774944),1404,"AVENIDA I CJ CEARA, 2736",-3.774944,-38.604164,ETUFOR,2022,EPSG: 31984 (SIRGAS 2000 - UTM 24S); Codificação: UTF-8
vw_PontosdeOnibus.fid--780b70dd_194f2cc3853_-3690,293,POINT (-38.602141 -3.77728),1408,"RUA DUAS NACOES, 570",-3.77728,-38.602141,ETUFOR,2022,EPSG: 31984 (SIRGAS 2000 - UTM 24S); Codificação: UTF-8
vw_PontosdeOnibus.fid--780b70dd_194f2cc3853_-368f,294,POINT (-38.607365 -3.779101),1409,"RUA TEODORO DE CASTRO, 1883",-3.779101,-38.607365,ETUFOR,2022,EPSG: 31984 (SIRGAS 2000 - UTM 24S); Codificação: UTF-8
vw_PontosdeOnibus.fid--780b70dd_194f2cc3853_-368e,295,POINT (-38.579301 -3.713819),141,"RUA TULIPA, 375",-3.713819,-38.579301,ETUFOR,2022,EPSG: 31984 (SIRGAS 2000 - UTM 24S); Codificação: UTF-8
vw_PontosdeOnibus.fid--780b70dd_194f2cc3853_-368d,296,POINT (-38.607206 -3.779148),1410,"RUA TEODORO DE CASTRO, 1840",-3.779148,-38.607206,ETUFOR,2022,EPSG: 31984 (SIRGAS 2000 - UTM 24S); Codificação: UTF-8
vw_PontosdeOnibus.fid--780b70dd_194f2cc3853_-368c,297,POINT (-38.605069 -3.779748),1411,"RUA TEODORO DE CASTRO, 1612",-3.779748,-38.605069,ETUFOR,2022,EPSG: 31984 (SIRGAS 2000 - UTM 24S); Codificação: UTF-8
vw_PontosdeOnibus.fid--780b70dd_194f2cc3853_-368b,298,POINT (-38.60519 -3.779719),1412,"RUA TEODORO DE CASTRO, 1609",-3.779719,-38.60519,ETUFOR,2022,EPSG: 31984 (SIRGAS 2000 - UTM 24S); Codificação: UTF-8
vw_PontosdeOnibus.fid--780b70dd_194f2cc3853_-368a,299,POINT (-38.606772 -3.778179),1413,"RUA JOSE TORRES, 824",-3.778179,-38.606772,ETUFOR,2022,EPSG: 31984 (SIRGAS 2000 - UTM 24S); Codificação: UTF-8
vw_PontosdeOnibus.fid--780b70dd_194f2cc3853_-3689,300,POINT (-38.607319 -3.780145),1414,"RUA JOSE TORRES, 1048",-3.780145,-38.607319,ETUFOR,2022,EPSG: 31984 (SIRGAS 2000 - UTM 24S); Codificação: UTF-8
vw_PontosdeOnibus.fid--780b70dd_194f2cc3853_-3688,301,POINT (-38.601275 -3.777848),1415,"RUA EMILIO DE MENESES, 2276",-3.777848,-38.601275,ETUFOR,2022,EPSG: 31984 (SIRGAS 2000 - UTM 24S); Codificação: UTF-8
vw_PontosdeOnibus.fid--780b70dd_194f2cc3853_-3687,302,POINT (-38.603849 -3.780086),1419,"RUA TEODORO DE CASTRO, 1415",-3.780086,-38.603849,ETUFOR,2022,EPSG: 31984 (SIRGAS 2000 - UTM 24S); Codificação: UTF-8
vw_PontosdeOnibus.fid--780b70dd_194f2cc3853_-3686,303,POINT (-38.579404 -3.714091),142,"RUA TULIPA, 420",-3.714091,-38.579404,ETUFOR,2022,EPSG: 31984 (SIRGAS 2000 - UTM 24S); Codificação: UTF-8
vw_PontosdeOnibus.fid--780b70dd_194f2cc3853_-3685,304,POINT (-38.603911 -3.780069),1420,"RUA TEODORO DE CASTRO, 1423",-3.780069,-38.603911,ETUFOR,2022,EPSG: 31984 (SIRGAS 2000 - UTM 24S); Codificação: UTF-8
vw_PontosdeOnibus.fid--780b70dd_194f2cc3853_-3684,305,POINT (-38.599907 -3.777069),1421,"RUA ANTONIO NERY, 495",-3.777069,-38.599907,ETUFOR,2022,EPSG: 31984 (SIRGAS 2000 - UTM 24S); Codificação: UTF-8
vw_PontosdeOnibus.fid--780b70dd_194f2cc3853_-3683,306,POINT (-38.598384 -3.777907),1424,"RUA VITAL BRASIL, 1948",-3.777907,-38.598384,ETUFOR,2022,EPSG: 31984 (SIRGAS 2000 - UTM 24S); Codificação: UTF-8
vw_PontosdeOnibus.fid--780b70dd_194f2cc3853_-3682,307,POINT (-38.598675 -3.778579),1425,"RUA EMILIO DE MENESES, 1947",-3.778579,-38.598675,ETUFOR,2022,EPSG: 31984 (SIRGAS 2000 - UTM 24S); Codificação: UTF-8
vw_PontosdeOnibus.fid--780b70dd_194f2cc3853_-3681,308,POINT (-38.594131 -3.779106),1426,"RUA VITAL BRASIL, 1430",-3.779106,-38.594131,ETUFOR,2022,EPSG: 31984 (SIRGAS 2000 - UTM 24S); Codificação: UTF-8
vw_PontosdeOnibus.fid--780b70dd_194f2cc3853_-3680,309,POINT (-38.595764 -3.779391),1428,"RUA EMILIO DE MENESES, 1551",-3.779391,-38.595764,ETUFOR,2022,EPSG: 31984 (SIRGAS 2000 - UTM 24S); Codificação: UTF-8
vw_PontosdeOnibus.fid--780b70dd_194f2cc3853_-367f,310,POINT (-38.593507 -3.780034),1429,"RUA EMILIO DE MENESES, 1372",-3.780034,-38.593507,ETUFOR,2022,EPSG: 31984 (SIRGAS 2000 - UTM 24S); Codificação: UTF-8
vw_PontosdeOnibus.fid--780b70dd_194f2cc3853_-367e,311,POINT (-38.591249 -3.779916),1430,"RUA VITAL BRASIL, 1097",-3.779916,-38.591249,ETUFOR,2022,EPSG: 31984 (SIRGAS 2000 - UTM 24S); Codificação: UTF-8
vw_PontosdeOnibus.fid--780b70dd_194f2cc3853_-367d,312,POINT (-38.589993 -3.781026),1431,"RUA EMILIO DE MENESES, 957",-3.781026,-38.589993,ETUFOR,2022,EPSG: 31984 (SIRGAS 2000 - UTM 24S); Codificação: UTF-8
vw_PontosdeOnibus.fid--780b70dd_194f2cc3853_-367c,313,POINT (-38.603444 -3.729325),1433,"RUA BARRINHA, 2956",-3.729325,-38.603444,ETUFOR,2022,EPSG: 31984 (SIRGAS 2000 - UTM 24S); Codificação: UTF-8
vw_PontosdeOnibus.fid--780b70dd_194f2cc3853_-367b,314,POINT (-38.603414 -3.729223),1434,"RUA STA MARIA GORETE, 2950",-3.729223,-38.603414,ETUFOR,2022,EPSG: 31984 (SIRGAS 2000 - UTM 24S); Codificação: UTF-8
vw_PontosdeOnibus.fid--780b70dd_194f2cc3853_-367a,315,POINT (-38.603286 -3.730506),1435,"RUA DONA LÚCIA PINHEIRO, 2723",-3.730506,-38.603286,ETUFOR,2022,EPSG: 31984 (SIRGAS 2000 - UTM 24S); Codificação: UTF-8
vw_PontosdeOnibus.fid--780b70dd_194f2cc3853_-3679,316,POINT (-38.603201 -3.73053),1436,"RUA DONA LÚCIA PINHEIRO, 2726",-3.73053,-38.603201,ETUFOR,2022,EPSG: 31984 (SIRGAS 2000 - UTM 24S); Codificação: UTF-8
vw_PontosdeOnibus.fid--780b70dd_194f2cc3853_-3678,317,POINT (-38.601616 -3.730972),1437,"RUA DONA LÚCIA PINHEIRO, 2556",-3.730972,-38.601616,ETUFOR,2022,EPSG: 31984 (SIRGAS 2000 - UTM 24S); Codificação: UTF-8
vw_PontosdeOnibus.fid--780b70dd_194f2cc3853_-3677,318,POINT (-38.579284 -3.709885),144,"AVENIDA FRANCISCO SA, 6200",-3.709885,-38.579284,ETUFOR,2022,EPSG: 31984 (SIRGAS 2000 - UTM 24S); Codificação: UTF-8
vw_PontosdeOnibus.fid--780b70dd_194f2cc3853_-3676,319,POINT (-38.599445 -3.731589),1440,"RUA DO TRABALHADOR, 2409 A",-3.731589,-38.599445,ETUFOR,2022,EPSG: 31984 (SIRGAS 2000 - UTM 24S); Codificação: UTF-8
vw_PontosdeOnibus.fid--780b70dd_194f2cc3853_-3675,320,POINT (-38.598758 -3.731764),1441,"RUA XXV CIDADE OESTE, 2262",-3.731764,-38.598758,ETUFOR,2022,EPSG: 31984 (SIRGAS 2000 - UTM 24S); Codificação: UTF-8
vw_PontosdeOnibus.fid--780b70dd_194f2cc3853_-3674,321,POINT (-38.597893 -3.732002),1442,"RUA DON LÚCIA PINHEIRO, 92",-3.732002,-38.597893,ETUFOR,2022,EPSG: 31984 (SIRGAS 2000 - UTM 24S); Codificação: UTF-8
vw_PontosdeOnibus.fid--780b70dd_194f2cc3853_-3673,322,POINT (-38.597792 -3.731258),1443,"RUA XIX CIDADE OESTE, 258",-3.731258,-38.597792,ETUFOR,2022,EPSG: 31984 (SIRGAS 2000 - UTM 24S); Codificação: UTF-8
vw_PontosdeOnibus.fid--780b70dd_194f2cc3853_-3672,323,POINT (-38.597672 -3.7301),1444,"RUA XXVII CIDADE OESTE, 344",-3.7301,-38.597672,ETUFOR,2022,EPSG: 31984 (SIRGAS 2000 - UTM 24S); Codificação: UTF-8
vw_PontosdeOnibus.fid--780b70dd_194f2cc3853_-3671,324,POINT (-38.597578 -3.729765),1445,"RUA XXVII CIDADE OESTE, 263",-3.729765,-38.597578,ETUFOR,2022,EPSG: 31984 (SIRGAS 2000 - UTM 24S); Codificação: UTF-8
vw_PontosdeOnibus.fid--780b70dd_194f2cc3853_-3670,325,POINT (-38.597393 -3.729007),1446,"RUA XXVII CIDADE OESTE, 160",-3.729007,-38.597393,ETUFOR,2022,EPSG: 31984 (SIRGAS 2000 - UTM 24S); Codificação: UTF-8
vw_PontosdeOnibus.fid--780b70dd_194f2cc3853_-366f,326,POINT (-38.598265 -3.728034),1447,"RUA XV CIDADE OESTE, 230",-3.728034,-38.598265,ETUFOR,2022,EPSG: 31984 (SIRGAS 2000 - UTM 24S); Codificação: UTF-8
vw_PontosdeOnibus.fid--780b70dd_194f2cc3853_-366e,327,POINT (-38.593749 -3.732244),1449,"RUA GAL ALIPIO DOS SANTOS, 1244",-3.732244,-38.593749,ETUFOR,2022,EPSG: 31984 (SIRGAS 2000 - UTM 24S); Codificação: UTF-8
vw_PontosdeOnibus.fid--780b70dd_194f2cc3853_-366d,328,POINT (-38.595909 -3.731827),1450,"RUA XX CIDADE OESTE, 301",-3.731827,-38.595909,ETUFOR,2022,EPSG: 31984 (SIRGAS 2000 - UTM 24S); Codificação: UTF-8
vw_PontosdeOnibus.fid--780b70dd_194f2cc3853_-366c,329,POINT (-38.59625 -3.731705),1451,"RUA XIX CIDADE OESTE, 30",-3.731705,-38.59625,ETUFOR,2022,EPSG: 31984 (SIRGAS 2000 - UTM 24S); Codificação: UTF-8
vw_PontosdeOnibus.fid--780b70dd_194f2cc3853_-366b,330,POINT (-38.599845 -3.733116),1452,"AVENIDA MOZART P.LUCENA, 3256",-3.733116,-38.599845,ETUFOR,2022,EPSG: 31984 (SIRGAS 2000 - UTM 24S); Codificação: UTF-8
vw_PontosdeOnibus.fid--780b70dd_194f2cc3853_-366a,331,POINT (-38.599986 -3.734313),1453,"RUA DOR PIO SARAIVA, 31",-3.734313,-38.599986,ETUFOR,2022,EPSG: 31984 (SIRGAS 2000 - UTM 24S); Codificação: UTF-8
vw_PontosdeOnibus.fid--780b70dd_194f2cc3853_-3669,332,POINT (-38.599978 -3.734398),1454,"RUA DOR PIO SARAIVA, 62",-3.734398,-38.599978,ETUFOR,2022,EPSG: 31984 (SIRGAS 2000 - UTM 24S); Codificação: UTF-8
vw_PontosdeOnibus.fid--780b70dd_194f2cc3853_-3668,333,POINT (-38.599767 -3.735972),1455,"RUA DOR PIO SARAIVA, 192",-3.735972,-38.599767,ETUFOR,2022,EPSG: 31984 (SIRGAS 2000 - UTM 24S); Codificação: UTF-8
vw_PontosdeOnibus.fid--780b70dd_194f2cc3853_-3667,334,POINT (-38.596769 -3.732612),1456,"RUA PDE PERDIGAO SAMPAIO, 05",-3.732612,-38.596769,ETUFOR,2022,EPSG: 31984 (SIRGAS 2000 - UTM 24S); Codificação: UTF-8
vw_PontosdeOnibus.fid--780b70dd_194f2cc3853_-3666,335,POINT (-38.595901 -3.734498),1457,"RUA PDE PERDIGAO SAMPAIO, 111",-3.734498,-38.595901,ETUFOR,2022,EPSG: 31984 (SIRGAS 2000 - UTM 24S); Codificação: UTF-8
vw_PontosdeOnibus.fid--780b70dd_194f2cc3853_-3665,336,POINT (-38.595265 -3.735996),1458,"RUA PDE PERDIGAO SAMPAIO, 447",-3.735996,-38.595265,ETUFOR,2022,EPSG: 31984 (SIRGAS 2000 - UTM 24S); Codificação: UTF-8
vw_PontosdeOnibus.fid--780b70dd_194f2cc3853_-3664,337,POINT (-38.594762 -3.732398),1459,"RUA XXIX CIDADE OESTE, 378",-3.732398,-38.594762,ETUFOR,2022,EPSG: 31984 (SIRGAS 2000 - UTM 24S); Codificação: UTF-8
vw_PontosdeOnibus.fid--780b70dd_194f2cc3853_-3663,338,POINT (-38.591573 -3.732943),1460,"RUA DEP MATOSO FILHO, 790",-3.732943,-38.591573,ETUFOR,2022,EPSG: 31984 (SIRGAS 2000 - UTM 24S); Codificação: UTF-8
vw_PontosdeOnibus.fid--780b70dd_194f2cc3853_-3662,339,POINT (-38.590734 -3.73257),1461,"RUA DEP MATOSO FILHO, 699",-3.73257,-38.590734,ETUFOR,2022,EPSG: 31984 (SIRGAS 2000 - UTM 24S); Codificação: UTF-8
vw_PontosdeOnibus.fid--780b70dd_194f2cc3853_-3661,340,POINT (-38.590409 -3.732429),1462,"RUA DEP MATOSO FILHO, 650",-3.732429,-38.590409,ETUFOR,2022,EPSG: 31984 (SIRGAS 2000 - UTM 24S); Codificação: UTF-8
vw_PontosdeOnibus.fid--780b70dd_194f2cc3853_-3660,341,POINT (-38.592643 -3.733248),1463,"RUA EMILIA GONCALVES, 1244",-3.733248,-38.592643,ETUFOR,2022,EPSG: 31984 (SIRGAS 2000 - UTM 24S); Codificação: UTF-8
vw_PontosdeOnibus.fid--780b70dd_194f2cc3853_-365f,342,POINT (-38.591391 -3.734902),1464,"RUA SGT HERMINIO, 185",-3.734902,-38.591391,ETUFOR,2022,EPSG: 31984 (SIRGAS 2000 - UTM 24S); Codificação: UTF-8
vw_PontosdeOnibus.fid--780b70dd_194f2cc3853_-365e,343,POINT (-38.591748 -3.735368),1465,"RUA SAO DOMINGOS, 448",-3.735368,-38.591748,ETUFOR,2022,EPSG: 31984 (SIRGAS 2000 - UTM 24S); Codificação: UTF-8
vw_PontosdeOnibus.fid--780b70dd_194f2cc3853_-365d,344,POINT (-38.591694 -3.735461),1466,"RUA SAO DOMINGOS, 437",-3.735461,-38.591694,ETUFOR,2022,EPSG: 31984 (SIRGAS 2000 - UTM 24S); Codificação: UTF-8
vw_PontosdeOnibus.fid--780b70dd_194f2cc3853_-365c,345,POINT (-38.591129 -3.736398),1467,"RUA SAO DOMINGOS, 313",-3.736398,-38.591129,ETUFOR,2022,EPSG: 31984 (SIRGAS 2000 - UTM 24S); Codificação: UTF-8
vw_PontosdeOnibus.fid--780b70dd_194f2cc3853_-365b,346,POINT (-38.590985 -3.736634),1468,"RUA SÃO DOMINGOS, 316",-3.736634,-38.590985,ETUFOR,2022,EPSG: 31984 (SIRGAS 2000 - UTM 24S); Codificação: UTF-8
vw_PontosdeOnibus.fid--780b70dd_194f2cc3853_-365a,347,POINT (-38.590614 -3.734486),1469,"RUA SGT HERMINIO, 73",-3.734486,-38.590614,ETUFOR,2022,EPSG: 31984 (SIRGAS 2000 - UTM 24S); Codificação: UTF-8
vw_PontosdeOnibus.fid--780b70dd_194f2cc3853_-3659,348,POINT (-38.588791 -3.714255),147,"AVENIDA CEL CARVALHO, 1309",-3.714255,-38.588791,ETUFOR,2022,EPSG: 31984 (SIRGAS 2000 - UTM 24S); Codificação: UTF-8
vw_PontosdeOnibus.fid--780b70dd_194f2cc3853_-3658,349,POINT (-38.587031 -3.728056),1470,"AVENIDA DA INDEPENDENCIA, 781",-3.728056,-38.587031,ETUFOR,2022,EPSG: 31984 (SIRGAS 2000 - UTM 24S); Codificação: UTF-8
vw_PontosdeOnibus.fid--780b70dd_194f2cc3853_-3657,350,POINT (-38.587689 -3.73123),1472,"RUA DEP MATOSO FILHO, 303",-3.73123,-38.587689,ETUFOR,2022,EPSG: 31984 (SIRGAS 2000 - UTM 24S); Codificação: UTF-8
vw_PontosdeOnibus.fid--780b70dd_194f2cc3853_-3656,351,POINT (-38.58514 -3.728219),1473,"AVENIDA CEL CARVALHO, 2882",-3.728219,-38.58514,ETUFOR,2022,EPSG: 31984 (SIRGAS 2000 - UTM 24S); Codificação: UTF-8
vw_PontosdeOnibus.fid--780b70dd_194f2cc3853_-3655,352,POINT (-38.584979 -3.728366),1474,"AVENIDA CEL CARVALHO, 2889",-3.728366,-38.584979,ETUFOR,2022,EPSG: 31984 (SIRGAS 2000 - UTM 24S); Codificação: UTF-8
vw_PontosdeOnibus.fid--780b70dd_194f2cc3853_-3654,353,POINT (-38.586092 -3.730501),1475,"RUA DEP MATOSO FILHO, 93",-3.730501,-38.586092,ETUFOR,2022,EPSG: 31984 (SIRGAS 2000 - UTM 24S); Codificação: UTF-8
vw_PontosdeOnibus.fid--780b70dd_194f2cc3853_-3653,354,POINT (-38.586125 -3.730516),1476,"RUA DEP MATOSO FILHO, 154",-3.730516,-38.586125,ETUFOR,2022,EPSG: 31984 (SIRGAS 2000 - UTM 24S); Codificação: UTF-8
vw_PontosdeOnibus.fid--780b70dd_194f2cc3853_-3652,355,POINT (-38.584714 -3.730876),1477,"AVENIDA CEL CARVALHO, 342",-3.730876,-38.584714,ETUFOR,2022,EPSG: 31984 (SIRGAS 2000 - UTM 24S); Codificação: UTF-8
vw_PontosdeOnibus.fid--780b70dd_194f2cc3853_-3651,356,POINT (-38.584583 -3.731094),1478,"AVENIDA CEL CARVALHO, 342",-3.731094,-38.584583,ETUFOR,2022,EPSG: 31984 (SIRGAS 2000 - UTM 24S); Codificação: UTF-8
vw_PontosdeOnibus.fid--780b70dd_194f2cc3853_-3650,357,POINT (-38.588691 -3.714249),148,"AVENIDA CEL CARVALHO, 1297",-3.714249,-38.588691,ETUFOR,2022,EPSG: 31984 (SIRGAS 2000 - UTM 24S); Codificação: UTF-8
vw_PontosdeOnibus.fid--780b70dd_194f2cc3853_-364f,358,POINT (-38.57998 -3.731808),1481,"AVENIDA SGT HERMINIO, 4600",-3.731808,-38.57998,ETUFOR,2022,EPSG: 31984 (SIRGAS 2000 - UTM 24S); Codificação: UTF-8
vw_PontosdeOnibus.fid--780b70dd_194f2cc3853_-364e,359,POINT (-38.580641 -3.730152),1482,"RUA BANVAR BEZERRA, 36",-3.730152,-38.580641,ETUFOR,2022,EPSG: 31984 (SIRGAS 2000 - UTM 24S); Codificação: UTF-8
vw_PontosdeOnibus.fid--780b70dd_194f2cc3853_-364d,360,POINT (-38.580579 -3.730681),1483,"RUA BANVAR BEZERRA, 40",-3.730681,-38.580579,ETUFOR,2022,EPSG: 31984 (SIRGAS 2000 - UTM 24S); Codificação: UTF-8
vw_PontosdeOnibus.fid--780b70dd_194f2cc3853_-364c,361,POINT (-38.496408 -3.819491),1484,"AVENIDA FRE CIRILO, SN",-3.819491,-38.496408,ETUFOR,2022,EPSG: 31984 (SIRGAS 2000 - UTM 24S); Codificação: UTF-8
vw_PontosdeOnibus.fid--780b70dd_194f2cc3853_-364b,362,POINT (-38.496421 -3.819694),1485,"AVENIDA FRE CIRILO, 3930",-3.819694,-38.496421,ETUFOR,2022,EPSG: 31984 (SIRGAS 2000 - UTM 24S); Codificação: UTF-8
vw_PontosdeOnibus.fid--780b70dd_194f2cc3853_-364a,363,POINT (-38.495501 -3.821543),1486,"AVENIDA FRE CIRILO, 4027",-3.821543,-38.495501,ETUFOR,2022,EPSG: 31984 (SIRGAS 2000 - UTM 24S); Codificação: UTF-8
vw_PontosdeOnibus.fid--780b70dd_194f2cc3853_-3649,364,POINT (-38.494014 -3.825178),1488,"AVENIDA FRE CIRILO, 4434",-3.825178,-38.494014,ETUFOR,2022,EPSG: 31984 (SIRGAS 2000 - UTM 24S); Codificação: UTF-8
vw_PontosdeOnibus.fid--780b70dd_194f2cc3853_-3648,365,POINT (-38.493898 -3.825202),1489,"AVENIDA FRE CIRILO, 4763",-3.825202,-38.493898,ETUFOR,2022,EPSG: 31984 (SIRGAS 2000 - UTM 24S); Codificação: UTF-8
vw_PontosdeOnibus.fid--780b70dd_194f2cc3853_-3647,366,POINT (-38.587799 -3.717818),149,"AVENIDA CEL CARVALHO, 1751",-3.717818,-38.587799,ETUFOR,2022,EPSG: 31984 (SIRGAS 2000 - UTM 24S); Codificação: UTF-8
vw_PontosdeOnibus.fid--780b70dd_194f2cc3853_-3646,367,POINT (-38.588268 -3.733997),1490,"AVENIDA SGT HERMINIO, 5498",-3.733997,-38.588268,ETUFOR,2022,EPSG: 31984 (SIRGAS 2000 - UTM 24S); Codificação: UTF-8
vw_PontosdeOnibus.fid--780b70dd_194f2cc3853_-3645,368,POINT (-38.586362 -3.736066),1492,"RUA CAP BRASIL, 219",-3.736066,-38.586362,ETUFOR,2022,EPSG: 31984 (SIRGAS 2000 - UTM 24S); Codificação: UTF-8
vw_PontosdeOnibus.fid--780b70dd_194f2cc3853_-3644,369,POINT (-38.584248 -3.734926),1493,"RUA CEL CARVALHO, 3572",-3.734926,-38.584248,ETUFOR,2022,EPSG: 31984 (SIRGAS 2000 - UTM 24S); Codificação: UTF-8
vw_PontosdeOnibus.fid--780b70dd_194f2cc3853_-3643,370,POINT (-38.584143 -3.73488),1494,"RUA CEL CARVALHO, 3581",-3.73488,-38.584143,ETUFOR,2022,EPSG: 31984 (SIRGAS 2000 - UTM 24S); Codificação: UTF-8
vw_PontosdeOnibus.fid--780b70dd_194f2cc3853_-3642,371,POINT (-38.583468 -3.733344),1495,"AVENIDA SGT HERMINIO, 4863",-3.733344,-38.583468,ETUFOR,2022,EPSG: 31984 (SIRGAS 2000 - UTM 24S); Codificação: UTF-8
vw_PontosdeOnibus.fid--780b70dd_194f2cc3853_-3641,372,POINT (-38.583852 -3.733596),1496,"AVENIDA SGT HERMINIO, 4931",-3.733596,-38.583852,ETUFOR,2022,EPSG: 31984 (SIRGAS 2000 - UTM 24S); Codificação: UTF-8
vw_PontosdeOnibus.fid--780b70dd_194f2cc3853_-3640,373,POINT (-38.580374 -3.732384),1497,"RUA BANVAR BEZERRA, 278",-3.732384,-38.580374,ETUFOR,2022,EPSG: 31984 (SIRGAS 2000 - UTM 24S); Codificação: UTF-8
vw_PontosdeOnibus.fid--780b70dd_194f2cc3853_-363f,374,POINT (-38.580367 -3.732468),1498,"RUA BANVAR BEZERRA, 278",-3.732468,-38.580367,ETUFOR,2022,EPSG: 31984 (SIRGAS 2000 - UTM 24S); Codificação: UTF-8
vw_PontosdeOnibus.fid--780b70dd_194f2cc3853_-363e,375,POINT (-38.579836 -3.733896),1499,"RUA GAL GOIS MONTEIRO, 525",-3.733896,-38.579836,ETUFOR,2022,EPSG: 31984 (SIRGAS 2000 - UTM 24S); Codificação: UTF-8
vw_PontosdeOnibus.fid--780b70dd_194f2cc3853_-363d,376,POINT (-38.593439 -3.70769),15,"RUA 2 CJ POLAR, 50",-3.70769,-38.593439,ETUFOR,2022,EPSG: 31984 (SIRGAS 2000 - UTM 24S); Codificação: UTF-8
vw_PontosdeOnibus.fid--780b70dd_194f2cc3853_-363c,377,POINT (-38.588055 -3.717247),150,"AVENIDA CEL CARVALHO, 1678",-3.717247,-38.588055,ETUFOR,2022,EPSG: 31984 (SIRGAS 2000 - UTM 24S); Codificação: UTF-8
vw_PontosdeOnibus.fid--780b70dd_194f2cc3853_-363b,378,POINT (-38.579734 -3.733882),1500,"RUA GAL GOIS MONTEIRO, 525",-3.733882,-38.579734,ETUFOR,2022,EPSG: 31984 (SIRGAS 2000 - UTM 24S); Codificação: UTF-8
vw_PontosdeOnibus.fid--780b70dd_194f2cc3853_-363a,379,POINT (-38.577119 -3.730678),1501,"AVENIDA SGT HERMINIO, 4020",-3.730678,-38.577119,ETUFOR,2022,EPSG: 31984 (SIRGAS 2000 - UTM 24S); Codificação: UTF-8
vw_PontosdeOnibus.fid--780b70dd_194f2cc3853_-3639,380,POINT (-38.578413 -3.731185),1502,"AVENIDA SGT HERMINIO, 4289",-3.731185,-38.578413,ETUFOR,2022,EPSG: 31984 (SIRGAS 2000 - UTM 24S); Codificação: UTF-8
vw_PontosdeOnibus.fid--780b70dd_194f2cc3853_-3638,381,POINT (-38.574632 -3.729711),1503,"AVENIDA SGT HERMINIO, 3787",-3.729711,-38.574632,ETUFOR,2022,EPSG: 31984 (SIRGAS 2000 - UTM 24S); Codificação: UTF-8
vw_PontosdeOnibus.fid--780b70dd_194f2cc3853_-3637,382,POINT (-38.574196 -3.729541),1504,"AVENIDA SGT HERMINIO, 3763",-3.729541,-38.574196,ETUFOR,2022,EPSG: 31984 (SIRGAS 2000 - UTM 24S); Codificação: UTF-8
vw_PontosdeOnibus.fid--780b70dd_194f2cc3853_-3636,383,POINT (-38.573332 -3.729184),1505,"AVENIDA SGT HERMÍNIO, 3673",-3.729184,-38.573332,ETUFOR,2022,EPSG: 31984 (SIRGAS 2000 - UTM 24S); Codificação: UTF-8
vw_PontosdeOnibus.fid--780b70dd_194f2cc3853_-3635,384,POINT (-38.571915 -3.728615),1506,"AVENIDA SGT HERMINIO, 57",-3.728615,-38.571915,ETUFOR,2022,EPSG: 31984 (SIRGAS 2000 - UTM 24S); Codificação: UTF-8
vw_PontosdeOnibus.fid--780b70dd_194f2cc3853_-3634,385,POINT (-38.57034 -3.728096),1507,"AVENIDA SGT HERMINIO, 11",-3.728096,-38.57034,ETUFOR,2022,EPSG: 31984 (SIRGAS 2000 - UTM 24S); Codificação: UTF-8
vw_PontosdeOnibus.fid--780b70dd_194f2cc3853_-3633,386,POINT (-38.569098 -3.730527),1509,"AVENIDA GOV PARSIFAL BARROSO, 300",-3.730527,-38.569098,ETUFOR,2022,EPSG: 31984 (SIRGAS 2000 - UTM 24S); Codificação: UTF-8
vw_PontosdeOnibus.fid--780b70dd_194f2cc3853_-3632,387,POINT (-38.577701 -3.73357),1510,"RUA GAL GOIS MONTEIRO, 285",-3.73357,-38.577701,ETUFOR,2022,EPSG: 31984 (SIRGAS 2000 - UTM 24S); Codificação: UTF-8
vw_PontosdeOnibus.fid--780b70dd_194f2cc3853_-3631,388,POINT (-38.577657 -3.733564),1511,"RUA GAL GOIS MONTEIRO, 508",-3.733564,-38.577657,ETUFOR,2022,EPSG: 31984 (SIRGAS 2000 - UTM 24S); Codificação: UTF-8
vw_PontosdeOnibus.fid--780b70dd_194f2cc3853_-3630,389,POINT (-38.568906 -3.733432),1514,"RUA MARIA MIRIAM FERREIRA DE SOUZA, SN",-3.733432,-38.568906,ETUFOR,2022,EPSG: 31984 (SIRGAS 2000 - UTM 24S); Codificação: UTF-8
vw_PontosdeOnibus.fid--780b70dd_194f2cc3853_-362f,390,POINT (-38.569001 -3.73395),1515,"AVENIDA GOV PARSIFAL BARROSO, SN",-3.73395,-38.569001,ETUFOR,2022,EPSG: 31984 (SIRGAS 2000 - UTM 24S); Codificação: UTF-8
vw_PontosdeOnibus.fid--780b70dd_194f2cc3853_-362e,391,POINT (-38.564586 -3.732107),1516,"RUA OLAVO BILAC, 1300",-3.732107,-38.564586,ETUFOR,2022,EPSG: 31984 (SIRGAS 2000 - UTM 24S); Codificação: UTF-8
vw_PontosdeOnibus.fid--780b70dd_194f2cc3853_-362d,392,POINT (-38.564612 -3.731779),1517,"RUA OLAVO BILAC, 1241",-3.731779,-38.564612,ETUFOR,2022,EPSG: 31984 (SIRGAS 2000 - UTM 24S); Codificação: UTF-8
vw_PontosdeOnibus.fid--780b70dd_194f2cc3853_-362c,393,POINT (-38.564737 -3.730173),1518,"RUA OLAVO BILAC, 1076",-3.730173,-38.564737,ETUFOR,2022,EPSG: 31984 (SIRGAS 2000 - UTM 24S); Codificação: UTF-8
vw_PontosdeOnibus.fid--780b70dd_194f2cc3853_-362b,394,POINT (-38.564934 -3.72843),1519,"RUA OLAVO BILAC, 809",-3.72843,-38.564934,ETUFOR,2022,EPSG: 31984 (SIRGAS 2000 - UTM 24S); Codificação: UTF-8
vw_PontosdeOnibus.fid--780b70dd_194f2cc3853_-362a,395,POINT (-38.582861 -3.718242),152,"RUA ALBERTO FERREIRA, 80",-3.718242,-38.582861,ETUFOR,2022,EPSG: 31984 (SIRGAS 2000 - UTM 24S); Codificação: UTF-8
vw_PontosdeOnibus.fid--780b70dd_194f2cc3853_-3629,396,POINT (-38.559882 -3.731136),1522,"RUA MOZART GONDIM, 1340",-3.731136,-38.559882,ETUFOR,2022,EPSG: 31984 (SIRGAS 2000 - UTM 24S); Codificação: UTF-8
vw_PontosdeOnibus.fid--780b70dd_194f2cc3853_-3628,397,POINT (-38.564285 -3.735015),1526,"RUA OLAVO BILAC, S/N",-3.735015,-38.564285,ETUFOR,2022,EPSG: 31984 (SIRGAS 2000 - UTM 24S); Codificação: UTF-8
vw_PontosdeOnibus.fid--780b70dd_194f2cc3853_-3627,398,POINT (-38.564327 -3.73483),1527,"RUA OLAVO BILAC, 1300",-3.73483,-38.564327,ETUFOR,2022,EPSG: 31984 (SIRGAS 2000 - UTM 24S); Codificação: UTF-8
vw_PontosdeOnibus.fid--780b70dd_194f2cc3853_-3626,399,POINT (-38.588913 -3.774236),1543,"RUA ANDRE REBOUCAS, 60",-3.774236,-38.588913,ETUFOR,2022,EPSG: 31984 (SIRGAS 2000 - UTM 24S); Codificação: UTF-8
vw_PontosdeOnibus.fid--780b70dd_194f2cc3853_-3625,400,POINT (-38.588136 -3.7734),1544,"RUA CACILDA BECKER, 261",-3.7734,-38.588136,ETUFOR,2022,EPSG: 31984 (SIRGAS 2000 - UTM 24S); Codificação: UTF-8
vw_PontosdeOnibus.fid--780b70dd_194f2cc3853_-3624,401,POINT (-38.58788 -3.776714),1545,"RUA VERBENA, SN",-3.776714,-38.58788,ETUFOR,2022,EPSG: 31984 (SIRGAS 2000 - UTM 24S); Codificação: UTF-8
vw_PontosdeOnibus.fid--780b70dd_194f2cc3853_-3623,402,POINT (-38.585959 -3.773579),1546,"RUA JULIO BRAGA, 1740",-3.773579,-38.585959,ETUFOR,2022,EPSG: 31984 (SIRGAS 2000 - UTM 24S); Codificação: UTF-8
vw_PontosdeOnibus.fid--780b70dd_194f2cc3853_-3622,403,POINT (-38.58225 -3.776099),1547,"AVENIDA LINEU MACHADO, 1934",-3.776099,-38.58225,ETUFOR,2022,EPSG: 31984 (SIRGAS 2000 - UTM 24S); Codificação: UTF-8
vw_PontosdeOnibus.fid--780b70dd_194f2cc3853_-3621,404,POINT (-38.582224 -3.776049),1548,"AVENIDA LINEU MACHADO, 1936",-3.776049,-38.582224,ETUFOR,2022,EPSG: 31984 (SIRGAS 2000 - UTM 24S); Codificação: UTF-8
vw_PontosdeOnibus.fid--780b70dd_194f2cc3853_-3620,405,POINT (-38.58157 -3.774897),1549,"AVENIDA LINEU MACHADO, 1772",-3.774897,-38.58157,ETUFOR,2022,EPSG: 31984 (SIRGAS 2000 - UTM 24S); Codificação: UTF-8
vw_PontosdeOnibus.fid--780b70dd_194f2cc3853_-361f,406,POINT (-38.581542 -3.774842),1550,"AVENIDA LINEU MACHADO, 1785",-3.774842,-38.581542,ETUFOR,2022,EPSG: 31984 (SIRGAS 2000 - UTM 24S); Codificação: UTF-8
vw_PontosdeOnibus.fid--780b70dd_194f2cc3853_-361e,407,POINT (-38.580925 -3.773662),1551,"AVENIDA LINEU MACHADO, 1634",-3.773662,-38.580925,ETUFOR,2022,EPSG: 31984 (SIRGAS 2000 - UTM 24S); Codificação: UTF-8
vw_PontosdeOnibus.fid--780b70dd_194f2cc3853_-361d,408,POINT (-38.579472 -3.774969),1552,"RUA MELO DE OLIVEIRA, 1088",-3.774969,-38.579472,ETUFOR,2022,EPSG: 31984 (SIRGAS 2000 - UTM 24S); Codificação: UTF-8
vw_PontosdeOnibus.fid--780b70dd_194f2cc3853_-361c,409,POINT (-38.588539 -3.78026),1553,"RUA VERBENA, 60",-3.78026,-38.588539,ETUFOR,2022,EPSG: 31984 (SIRGAS 2000 - UTM 24S); Codificação: UTF-8
vw_PontosdeOnibus.fid--780b70dd_194f2cc3853_-361b,410,POINT (-38.586055 -3.779905),1556,"RUA CARLOS CHAGAS, 643",-3.779905,-38.586055,ETUFOR,2022,EPSG: 31984 (SIRGAS 2000 - UTM 24S); Codificação: UTF-8
vw_PontosdeOnibus.fid--780b70dd_194f2cc3853_-361a,411,POINT (-38.585739 -3.779996),1557,"RUA CARLOS CHAGAS, 611",-3.779996,-38.585739,ETUFOR,2022,EPSG: 31984 (SIRGAS 2000 - UTM 24S); Codificação: UTF-8
vw_PontosdeOnibus.fid--780b70dd_194f2cc3853_-3619,412,POINT (-38.583904 -3.780518),1558,"RUA CARLOS CHAGAS, 409",-3.780518,-38.583904,ETUFOR,2022,EPSG: 31984 (SIRGAS 2000 - UTM 24S); Codificação: UTF-8
vw_PontosdeOnibus.fid--780b70dd_194f2cc3853_-3618,413,POINT (-38.583874 -3.780526),1559,"RUA CARLOS CHAGAS, 400",-3.780526,-38.583874,ETUFOR,2022,EPSG: 31984 (SIRGAS 2000 - UTM 24S); Codificação: UTF-8
vw_PontosdeOnibus.fid--780b70dd_194f2cc3853_-3617,414,POINT (-38.583274 -3.779571),1560,"RUA ARAÇA, 183",-3.779571,-38.583274,ETUFOR,2022,EPSG: 31984 (SIRGAS 2000 - UTM 24S); Codificação: UTF-8
vw_PontosdeOnibus.fid--780b70dd_194f2cc3853_-3616,415,POINT (-38.583246 -3.779455),1561,"RUA ARAÇA, 164",-3.779455,-38.583246,ETUFOR,2022,EPSG: 31984 (SIRGAS 2000 - UTM 24S); Codificação: UTF-8
vw_PontosdeOnibus.fid--780b70dd_194f2cc3853_-3615,416,POINT (-38.58299 -3.777513),1562,"AVENIDA LINEU MACHADO, 2076",-3.777513,-38.58299,ETUFOR,2022,EPSG: 31984 (SIRGAS 2000 - UTM 24S); Codificação: UTF-8
vw_PontosdeOnibus.fid--780b70dd_194f2cc3853_-3614,417,POINT (-38.580391 -3.781577),1563,"AVENIDA AUGUSTO DOS ANJOS, 1786",-3.781577,-38.580391,ETUFOR,2022,EPSG: 31984 (SIRGAS 2000 - UTM 24S); Codificação: UTF-8
vw_PontosdeOnibus.fid--780b70dd_194f2cc3853_-3613,418,POINT (-38.580259 -3.781428),1564,"AVENIDA AUGUSTO DOS ANJOS, 1738",-3.781428,-38.580259,ETUFOR,2022,EPSG: 31984 (SIRGAS 2000 - UTM 24S); Codificação: UTF-8
vw_PontosdeOnibus.fid--780b70dd_194f2cc3853_-3612,419,POINT (-38.595326 -3.735845),1565,"RUA PDE PERDIGAO SAMPAIO, 200",-3.735845,-38.595326,ETUFOR,2022,EPSG: 31984 (SIRGAS 2000 - UTM 24S); Codificação: UTF-8
vw_PontosdeOnibus.fid--780b70dd_194f2cc3853_-3611,420,POINT (-38.471397 -3.708966),1566,"AVENIDA VICENTE DE CASTRO, 6920",-3.708966,-38.471397,ETUFOR,2022,EPSG: 31984 (SIRGAS 2000 - UTM 24S); Codificação: UTF-8
vw_PontosdeOnibus.fid--780b70dd_194f2cc3853_-3610,421,POINT (-38.471207 -3.70894),1567,"AVENIDA VICENTE DE CASTRO, 6920",-3.70894,-38.471207,ETUFOR,2022,EPSG: 31984 (SIRGAS 2000 - UTM 24S); Codificação: UTF-8
vw_PontosdeOnibus.fid--780b70dd_194f2cc3853_-360f,422,POINT (-38.468588 -3.709145),1568,"AVENIDA ZEZE DIOGO, 159",-3.709145,-38.468588,ETUFOR,2022,EPSG: 31984 (SIRGAS 2000 - UTM 24S); Codificação: UTF-8
vw_PontosdeOnibus.fid--780b70dd_194f2cc3853_-360e,423,POINT (-38.473136 -3.713389),1569,"AVENIDA VICENTE DE CASTRO, S/N",-3.713389,-38.473136,ETUFOR,2022,EPSG: 31984 (SIRGAS 2000 - UTM 24S); Codificação: UTF-8
vw_PontosdeOnibus.fid--780b70dd_194f2cc3853_-360d,424,POINT (-38.472676 -3.712234),1570,"AVENIDA VICENTE DE CASTRO, S/N",-3.712234,-38.472676,ETUFOR,2022,EPSG: 31984 (SIRGAS 2000 - UTM 24S); Codificação: UTF-8
vw_PontosdeOnibus.fid--780b70dd_194f2cc3853_-360c,425,POINT (-38.472195 -3.711457),1571,"AVENIDA VICENTE DE CASTRO, 6074",-3.711457,-38.472195,ETUFOR,2022,EPSG: 31984 (SIRGAS 2000 - UTM 24S); Codificação: UTF-8
vw_PontosdeOnibus.fid--780b70dd_194f2cc3853_-360b,426,POINT (-38.472958 -3.713961),1572,"AVENIDA JOSE SABOIA, 115",-3.713961,-38.472958,ETUFOR,2022,EPSG: 31984 (SIRGAS 2000 - UTM 24S); Codificação: UTF-8
vw_PontosdeOnibus.fid--780b70dd_194f2cc3853_-360a,427,POINT (-38.475182 -3.717839),1573,"AVENIDA VICENTE DE CASTRO, 5151",-3.717839,-38.475182,ETUFOR,2022,EPSG: 31984 (SIRGAS 2000 - UTM 24S); Codificação: UTF-8
vw_PontosdeOnibus.fid--780b70dd_194f2cc3853_-3609,428,POINT (-38.475028 -3.71625),1574,"AVENIDA VICENTE DE CASTRO, 6001",-3.71625,-38.475028,ETUFOR,2022,EPSG: 31984 (SIRGAS 2000 - UTM 24S); Codificação: UTF-8
vw_PontosdeOnibus.fid--780b70dd_194f2cc3853_-3608,429,POINT (-38.474639 -3.715963),1575,"AVENIDA VICENTE DE CASTRO, 6001",-3.715963,-38.474639,ETUFOR,2022,EPSG: 31984 (SIRGAS 2000 - UTM 24S); Codificação: UTF-8
vw_PontosdeOnibus.fid--780b70dd_194f2cc3853_-3607,430,POINT (-38.474031 -3.714822),1576,"AVENIDA VICENTE DE CASTRO, 6001",-3.714822,-38.474031,ETUFOR,2022,EPSG: 31984 (SIRGAS 2000 - UTM 24S); Codificação: UTF-8
vw_PontosdeOnibus.fid--780b70dd_194f2cc3853_-3606,431,POINT (-38.473664 -3.714579),1577,"AVENIDA VICENTE DE CASTRO, 6001",-3.714579,-38.473664,ETUFOR,2022,EPSG: 31984 (SIRGAS 2000 - UTM 24S); Codificação: UTF-8
vw_PontosdeOnibus.fid--780b70dd_194f2cc3853_-3605,432,POINT (-38.471452 -3.7144),1578,"AVENIDA JOSE SABOIA, 115",-3.7144,-38.471452,ETUFOR,2022,EPSG: 31984 (SIRGAS 2000 - UTM 24S); Codificação: UTF-8
vw_PontosdeOnibus.fid--780b70dd_194f2cc3853_-3604,433,POINT (-38.471365 -3.71446),1579,"AVENIDA JOSE SABOIA, 113",-3.71446,-38.471365,ETUFOR,2022,EPSG: 31984 (SIRGAS 2000 - UTM 24S); Codificação: UTF-8
vw_PontosdeOnibus.fid--780b70dd_194f2cc3853_-3603,434,POINT (-38.467358 -3.711288),1580,"AVENIDA ZEZE DIOGO, 487",-3.711288,-38.467358,ETUFOR,2022,EPSG: 31984 (SIRGAS 2000 - UTM 24S); Codificação: UTF-8
vw_PontosdeOnibus.fid--780b70dd_194f2cc3853_-3602,435,POINT (-38.466587 -3.712908),1581,"AVENIDA ZEZE DIOGO, 493",-3.712908,-38.466587,ETUFOR,2022,EPSG: 31984 (SIRGAS 2000 - UTM 24S); Codificação: UTF-8
vw_PontosdeOnibus.fid--780b70dd_194f2cc3853_-3601,436,POINT (-38.46674 -3.712582),1582,"AVENIDA ZEZE DIOGO, 669",-3.712582,-38.46674,ETUFOR,2022,EPSG: 31984 (SIRGAS 2000 - UTM 24S); Codificação: UTF-8
vw_PontosdeOnibus.fid--780b70dd_194f2cc3853_-3600,437,POINT (-38.467105 -3.717357),1583,"AVENIDA JOSE SABOIA, 521",-3.717357,-38.467105,ETUFOR,2022,EPSG: 31984 (SIRGAS 2000 - UTM 24S); Codificação: UTF-8
vw_PontosdeOnibus.fid--780b70dd_194f2cc3853_-35ff,438,POINT (-38.467006 -3.717426),1584,"AVENIDA JOSE SABOIA, 780",-3.717426,-38.467006,ETUFOR,2022,EPSG: 31984 (SIRGAS 2000 - UTM 24S); Codificação: UTF-8
vw_PontosdeOnibus.fid--780b70dd_194f2cc3853_-35fe,439,POINT (-38.464357 -3.717814),1585,"AVENIDA ZEZE DIOGO, 1195",-3.717814,-38.464357,ETUFOR,2022,EPSG: 31984 (SIRGAS 2000 - UTM 24S); Codificação: UTF-8
vw_PontosdeOnibus.fid--780b70dd_194f2cc3853_-35fd,440,POINT (-38.46483 -3.716759),1586,"AVENIDA ZEZE DIOGO, 1087",-3.716759,-38.46483,ETUFOR,2022,EPSG: 31984 (SIRGAS 2000 - UTM 24S); Codificação: UTF-8
vw_PontosdeOnibus.fid--780b70dd_194f2cc3853_-35fc,441,POINT (-38.465668 -3.714903),1587,"AVENIDA ZEZE DIOGO, 659",-3.714903,-38.465668,ETUFOR,2022,EPSG: 31984 (SIRGAS 2000 - UTM 24S); Codificação: UTF-8
vw_PontosdeOnibus.fid--780b70dd_194f2cc3853_-35fb,442,POINT (-38.465715 -3.714802),1588,"AVENIDA ZEZE DIOGO, 655",-3.714802,-38.465715,ETUFOR,2022,EPSG: 31984 (SIRGAS 2000 - UTM 24S); Codificação: UTF-8
vw_PontosdeOnibus.fid--780b70dd_194f2cc3853_-35fa,443,POINT (-38.580299 -3.715536),159,"RUA TEODOMIRO DE CASTRO, 6715",-3.715536,-38.580299,ETUFOR,2022,EPSG: 31984 (SIRGAS 2000 - UTM 24S); Codificação: UTF-8
vw_PontosdeOnibus.fid--780b70dd_194f2cc3853_-35f9,444,POINT (-38.540341 -3.727757),1594,"AVENIDA PDE IBIAPINA, 1446",-3.727757,-38.540341,ETUFOR,2022,EPSG: 31984 (SIRGAS 2000 - UTM 24S); Codificação: UTF-8
vw_PontosdeOnibus.fid--780b70dd_194f2cc3853_-35f8,445,POINT (-38.536079 -3.729714),1598,"AVENIDA DUQ CAXIAS, 1327",-3.729714,-38.536079,ETUFOR,2022,EPSG: 31984 (SIRGAS 2000 - UTM 24S); Codificação: UTF-8
vw_PontosdeOnibus.fid--780b70dd_194f2cc3853_-35f7,446,POINT (-38.535702 -3.731303),1599,"AVENIDA IMPERADOR, 1190",-3.731303,-38.535702,ETUFOR,2022,EPSG: 31984 (SIRGAS 2000 - UTM 24S); Codificação: UTF-8
vw_PontosdeOnibus.fid--780b70dd_194f2cc3853_-35f6,447,POINT (-38.580814 -3.715352),160,"RUA RAIMUNDO FROTA, 6726",-3.715352,-38.580814,ETUFOR,2022,EPSG: 31984 (SIRGAS 2000 - UTM 24S); Codificação: UTF-8
vw_PontosdeOnibus.fid--780b70dd_194f2cc3853_-35f5,448,POINT (-38.537297 -3.731505),1600,"RUA METON DE ALENCAR, 1520",-3.731505,-38.537297,ETUFOR,2022,EPSG: 31984 (SIRGAS 2000 - UTM 24S); Codificação: UTF-8
vw_PontosdeOnibus.fid--780b70dd_194f2cc3853_-35f4,449,POINT (-38.536303 -3.733315),1604,"AVENIDA IMPERADOR, 1360",-3.733315,-38.536303,ETUFOR,2022,EPSG: 31984 (SIRGAS 2000 - UTM 24S); Codificação: UTF-8
vw_PontosdeOnibus.fid--780b70dd_194f2cc3853_-35f3,450,POINT (-38.536373 -3.733544),1605,"AVENIDA IMPERADOR, 1433",-3.733544,-38.536373,ETUFOR,2022,EPSG: 31984 (SIRGAS 2000 - UTM 24S); Codificação: UTF-8
vw_PontosdeOnibus.fid--780b70dd_194f2cc3853_-35f2,451,POINT (-38.536465 -3.733841),1606,"AVENIDA IMPERADOR, 1459",-3.733841,-38.536465,ETUFOR,2022,EPSG: 31984 (SIRGAS 2000 - UTM 24S); Codificação: UTF-8
vw_PontosdeOnibus.fid--780b70dd_194f2cc3853_-35f1,452,POINT (-38.536554 -3.73413),1607,"AVENIDA IMPERADOR, 1479",-3.73413,-38.536554,ETUFOR,2022,EPSG: 31984 (SIRGAS 2000 - UTM 24S); Codificação: UTF-8
vw_PontosdeOnibus.fid--780b70dd_194f2cc3853_-35f0,453,POINT (-38.53666 -3.734477),1608,"AVENIDA IMPERADOR, 1499",-3.734477,-38.53666,ETUFOR,2022,EPSG: 31984 (SIRGAS 2000 - UTM 24S); Codificação: UTF-8
vw_PontosdeOnibus.fid--780b70dd_194f2cc3853_-35ef,454,POINT (-38.536187 -3.735088),1609,"RUA DOMINGOS OLIMPIO, S/N",-3.735088,-38.536187,ETUFOR,2022,EPSG: 31984 (SIRGAS 2000 - UTM 24S); Codificação: UTF-8
vw_PontosdeOnibus.fid--780b70dd_194f2cc3853_-35ee,455,POINT (-38.582146 -3.715172),161,"RUA RAIMUNDO FROTA, 115",-3.715172,-38.582146,ETUFOR,2022,EPSG: 31984 (SIRGAS 2000 - UTM 24S); Codificação: UTF-8
vw_PontosdeOnibus.fid--780b70dd_194f2cc3853_-35ed,456,POINT (-38.537115 -3.736164),1610,"AVENIDA IMPERADOR, 1738",-3.736164,-38.537115,ETUFOR,2022,EPSG: 31984 (SIRGAS 2000 - UTM 24S); Codificação: UTF-8
vw_PontosdeOnibus.fid--780b70dd_194f2cc3853_-35ec,457,POINT (-38.576157 -3.774895),1614,"RUA PERDIGAO DE OLIVEIRA, 780",-3.774895,-38.576157,ETUFOR,2022,EPSG: 31984 (SIRGAS 2000 - UTM 24S); Codificação: UTF-8
vw_PontosdeOnibus.fid--780b70dd_194f2cc3853_-35eb,458,POINT (-38.57549 -3.774977),1615,"RUA PERDIGAO DE OLIVEIRA, 651",-3.774977,-38.57549,ETUFOR,2022,EPSG: 31984 (SIRGAS 2000 - UTM 24S); Codificação: UTF-8
vw_PontosdeOnibus.fid--780b70dd_194f2cc3853_-35ea,459,POINT (-38.576497 -3.777127),1617,"AVENIDA AUGUSTO DOS ANJOS, 1150",-3.777127,-38.576497,ETUFOR,2022,EPSG: 31984 (SIRGAS 2000 - UTM 24S); Codificação: UTF-8
vw_PontosdeOnibus.fid--780b70dd_194f2cc3853_-35e9,460,POINT (-38.574062 -3.774418),1618,"AVENIDA AUGUSTO DOS ANJOS, 749",-3.774418,-38.574062,ETUFOR,2022,EPSG: 31984 (SIRGAS 2000 - UTM 24S); Codificação: UTF-8
vw_PontosdeOnibus.fid--780b70dd_194f2cc3853_-35e8,461,POINT (-38.573949 -3.774289),1619,"AVENIDA AUGUSTO DOS ANJOS, 680",-3.774289,-38.573949,ETUFOR,2022,EPSG: 31984 (SIRGAS 2000 - UTM 24S); Codificação: UTF-8
vw_PontosdeOnibus.fid--780b70dd_194f2cc3853_-35e7,462,POINT (-38.579648 -3.715777),162,"RUA TEODORO DE CASTRO, 6614",-3.715777,-38.579648,ETUFOR,2022,EPSG: 31984 (SIRGAS 2000 - UTM 24S); Codificação: UTF-8
vw_PontosdeOnibus.fid--780b70dd_194f2cc3853_-35e6,463,POINT (-38.569707 -3.777667),1622,"AVENIDA GAL OSORIO DE PAIVA, 852",-3.777667,-38.569707,ETUFOR,2022,EPSG: 31984 (SIRGAS 2000 - UTM 24S); Codificação: UTF-8
vw_PontosdeOnibus.fid--780b70dd_194f2cc3853_-35e5,464,POINT (-38.568099 -3.779162),1623,"RUA CÔNEGO DE CASTRO, 710",-3.779162,-38.568099,ETUFOR,2022,EPSG: 31984 (SIRGAS 2000 - UTM 24S); Codificação: UTF-8
vw_PontosdeOnibus.fid--780b70dd_194f2cc3853_-35e4,465,POINT (-38.568477 -3.779589),1624,"RUA CÔNEGO DE CASTRO, SN",-3.779589,-38.568477,ETUFOR,2022,EPSG: 31984 (SIRGAS 2000 - UTM 24S); Codificação: UTF-8
vw_PontosdeOnibus.fid--780b70dd_194f2cc3853_-35e3,466,POINT (-38.569285 -3.780504),1625,"RUA CÔNEGO DE CASTRO, 956",-3.780504,-38.569285,ETUFOR,2022,EPSG: 31984 (SIRGAS 2000 - UTM 24S); Codificação: UTF-8
vw_PontosdeOnibus.fid--780b70dd_194f2cc3853_-35e2,467,POINT (-38.569941 -3.781219),1627,"RUA CON CASTRO, 956",-3.781219,-38.569941,ETUFOR,2022,EPSG: 31984 (SIRGAS 2000 - UTM 24S); Codificação: UTF-8
vw_PontosdeOnibus.fid--780b70dd_194f2cc3853_-35e1,468,POINT (-38.571824 -3.778935),1628,"AVENIDA GAL OSORIO DE PAIVA, SN",-3.778935,-38.571824,ETUFOR,2022,EPSG: 31984 (SIRGAS 2000 - UTM 24S); Codificação: UTF-8
vw_PontosdeOnibus.fid--780b70dd_194f2cc3853_-35e0,469,POINT (-38.571692 -3.778921),1629,"AVENIDA GAL OSORIO DE PAIVA, 1293",-3.778921,-38.571692,ETUFOR,2022,EPSG: 31984 (SIRGAS 2000 - UTM 24S); Codificação: UTF-8
vw_PontosdeOnibus.fid--780b70dd_194f2cc3853_-35df,470,POINT (-38.580224 -3.716289),163,"RUA TULIPA, 687",-3.716289,-38.580224,ETUFOR,2022,EPSG: 31984 (SIRGAS 2000 - UTM 24S); Codificação: UTF-8
vw_PontosdeOnibus.fid--780b70dd_194f2cc3853_-35de,471,POINT (-38.573261 -3.779915),1630,"AVENIDA GAL OSÓRIO DE PAIVA, 1293",-3.779915,-38.573261,ETUFOR,2022,EPSG: 31984 (SIRGAS 2000 - UTM 24S); Codificação: UTF-8
vw_PontosdeOnibus.fid--780b70dd_194f2cc3853_-35dd,472,POINT (-38.574004 -3.780301),1632,"AVENIDA GAL OSORIO DE PAIVA, SN",-3.780301,-38.574004,ETUFOR,2022,EPSG: 31984 (SIRGAS 2000 - UTM 24S); Codificação: UTF-8
vw_PontosdeOnibus.fid--780b70dd_194f2cc3853_-35dc,473,POINT (-38.575049 -3.781093),1633,"AVENIDA GAL OSORIO DE PAIVA, 1591",-3.781093,-38.575049,ETUFOR,2022,EPSG: 31984 (SIRGAS 2000 - UTM 24S); Codificação: UTF-8
vw_PontosdeOnibus.fid--780b70dd_194f2cc3853_-35db,474,POINT (-38.578065 -3.778928),1635,"AVENIDA AUGUSTO DOS ANJOS, 1417",-3.778928,-38.578065,ETUFOR,2022,EPSG: 31984 (SIRGAS 2000 - UTM 24S); Codificação: UTF-8
vw_PontosdeOnibus.fid--780b70dd_194f2cc3853_-35da,475,POINT (-38.57776 -3.778575),1636,"AVENIDA AUGUSTO DOS ANJOS, 1314",-3.778575,-38.57776,ETUFOR,2022,EPSG: 31984 (SIRGAS 2000 - UTM 24S); Codificação: UTF-8
vw_PontosdeOnibus.fid--780b70dd_194f2cc3853_-35d9,476,POINT (-38.565934 -3.775196),1637,"AVENIDA GAL OSORIO DE PAIVA, SN",-3.775196,-38.565934,ETUFOR,2022,EPSG: 31984 (SIRGAS 2000 - UTM 24S); Codificação: UTF-8
vw_PontosdeOnibus.fid--780b70dd_194f2cc3853_-35d8,477,POINT (-38.565026 -3.775257),1638,"RUA EDUARDO PERDIGAO, 118",-3.775257,-38.565026,ETUFOR,2022,EPSG: 31984 (SIRGAS 2000 - UTM 24S); Codificação: UTF-8
vw_PontosdeOnibus.fid--780b70dd_194f2cc3853_-35d7,478,POINT (-38.566422 -3.777326),1639,"RUA CON CASTRO, 403",-3.777326,-38.566422,ETUFOR,2022,EPSG: 31984 (SIRGAS 2000 - UTM 24S); Codificação: UTF-8
vw_PontosdeOnibus.fid--780b70dd_194f2cc3853_-35d6,479,POINT (-38.580306 -3.716505),164,"RUA TULIPA, 696",-3.716505,-38.580306,ETUFOR,2022,EPSG: 31984 (SIRGAS 2000 - UTM 24S); Codificação: UTF-8
vw_PontosdeOnibus.fid--780b70dd_194f2cc3853_-35d5,480,POINT (-38.567843 -3.776414),1641,"AVENIDA GAL OSORIO DE PAIVA, 600",-3.776414,-38.567843,ETUFOR,2022,EPSG: 31984 (SIRGAS 2000 - UTM 24S); Codificação: UTF-8
vw_PontosdeOnibus.fid--780b70dd_194f2cc3853_-35d4,481,POINT (-38.567162 -3.776059),1642,"AVENIDA GAL OSORIO DE PAIVA, 426",-3.776059,-38.567162,ETUFOR,2022,EPSG: 31984 (SIRGAS 2000 - UTM 24S); Codificação: UTF-8
vw_PontosdeOnibus.fid--780b70dd_194f2cc3853_-35d3,482,POINT (-38.563736 -3.77318),1643,"AVENIDA OSORIO DE PAIVA, 110",-3.77318,-38.563736,ETUFOR,2022,EPSG: 31984 (SIRGAS 2000 - UTM 24S); Codificação: UTF-8
vw_PontosdeOnibus.fid--780b70dd_194f2cc3853_-35d2,483,POINT (-38.564402 -3.774241),1644,"AVENIDA CARLOS AMORA, 34",-3.774241,-38.564402,ETUFOR,2022,EPSG: 31984 (SIRGAS 2000 - UTM 24S); Codificação: UTF-8
vw_PontosdeOnibus.fid--780b70dd_194f2cc3853_-35d1,484,POINT (-38.564195 -3.77497),1645,"RUA CON CASTRO, 77",-3.77497,-38.564195,ETUFOR,2022,EPSG: 31984 (SIRGAS 2000 - UTM 24S); Codificação: UTF-8
vw_PontosdeOnibus.fid--780b70dd_194f2cc3853_-35d0,485,POINT (-38.562634 -3.773387),1646,"RUA 7 DE SETEMBRO, SN",-3.773387,-38.562634,ETUFOR,2022,EPSG: 31984 (SIRGAS 2000 - UTM 24S); Codificação: UTF-8
vw_PontosdeOnibus.fid--780b70dd_194f2cc3853_-35cf,486,POINT (-38.564025 -3.777279),1647,"AVENIDA GODOFREDO MACIEL, SN",-3.777279,-38.564025,ETUFOR,2022,EPSG: 31984 (SIRGAS 2000 - UTM 24S); Codificação: UTF-8
vw_PontosdeOnibus.fid--780b70dd_194f2cc3853_-35ce,487,POINT (-38.560381 -3.775657),1649,"RUA GERMANO FRANCK, 375",-3.775657,-38.560381,ETUFOR,2022,EPSG: 31984 (SIRGAS 2000 - UTM 24S); Codificação: UTF-8
